{"type": "FeatureCollection", "features": [{"type":"Feature","geometry":{"type":"Point","coordinates":[120.289843,22.628524]},"properties":{"cartodb_id":18,"name":"兩面紅土球場","description":false,"tel":"","surface":"紅土[clay]","city":"高雄市[Kaohsiung City]","type":"","charge":"","number_of_courts":2,"address":"","light":null}},{"type":"Feature","geometry":{"type":"Point","coordinates":[120.353583,22.623756]},"properties":{"cartodb_id":12,"name":"鳳西運動公園網球場","description":false,"tel":"0956802623\n","surface":"紅土[clay]","city":"高雄市[Kaohsiung City]","type":"公共設施[Public]","charge":"","number_of_courts":2,"address":"高雄市鳳山區體育路65號","light":null}},{"type":"Feature","geometry":{"type":"Point","coordinates":[120.318735,22.589452]},"properties":{"cartodb_id":2,"name":"前鎮高中網球場","description":false,"tel":"(07)8226841轉206\n","surface":"紅土[clay]","city":"高雄市[Kaohsiung City]","type":"高中或國中小[School]","charge":"會員制，年費","number_of_courts":2,"address":"高雄市前鎮區鎮中路132號","light":true}},{"type":"Feature","geometry":{"type":"Point","coordinates":[120.462521,23.472632]},"properties":{"cartodb_id":90,"name":"嘉義市立網球場\n","description":false,"tel":"05-2243001\n","surface":"紅土[clay]","city":"嘉義市[Chiayi City]","type":"公共設施[Public]","charge":"","number_of_courts":4,"address":"嘉義市體育路4號","light":null}},{"type":"Feature","geometry":{"type":"Point","coordinates":[120.524531,22.676882]},"properties":{"cartodb_id":99,"name":"長興國小網球場\n","description":false,"tel":"(08)7368567\n","surface":"紅土[clay]","city":"屏東縣[Pintung County]","type":"高中或國中小[School]","charge":"","number_of_courts":2,"address":"屏東縣長治鄉新潭村潭頭路50號","light":null}},{"type":"Feature","geometry":{"type":"Point","coordinates":[121.541344,25.032619]},"properties":{"cartodb_id":101,"name":"大安高工網球場\n","description":false,"tel":"(02)27091630#123\n","surface":"硬地[hard]","city":"台北市[Taipei City]","type":"高中或國中小[School]","charge":"","number_of_courts":2,"address":"臺北市大安區龍圖里復興南路2段52號","light":null}},{"type":"Feature","geometry":{"type":"Point","coordinates":[121.519504,25.118354]},"properties":{"cartodb_id":109,"name":"臺北護理健康大學網球場\n","description":false,"tel":"(02)28227101#2901\n","surface":"硬地[hard]","city":"台北市[Taipei City]","type":"大專院校[University]","charge":"","number_of_courts":2,"address":"臺北市北投區明德路365號","light":null}},{"type":"Feature","geometry":{"type":"Point","coordinates":[120.400162,22.637013]},"properties":{"cartodb_id":324,"name":"中庄國中網球場\n","description":false,"tel":"(07)7033166\n","surface":"硬地[hard]","city":"高雄市[Kaohsiung City]","type":"高中或國中小[School]","charge":"","number_of_courts":1,"address":"","light":null}},{"type":"Feature","geometry":{"type":"Point","coordinates":[120.371294,22.762206]},"properties":{"cartodb_id":326,"name":"明陽中學網球場","description":false,"tel":"","surface":"硬地[hard]","city":"高雄市[Kaohsiung City]","type":"高中或國中小[School]","charge":"","number_of_courts":1,"address":"","light":null}},{"type":"Feature","geometry":{"type":"Point","coordinates":[121.864171,25.036733]},"properties":{"cartodb_id":349,"name":"雙溪運動公園\n","description":false,"tel":"2493-1111#221\n","surface":"硬地[hard]","city":"新北市[New Taipei City]","type":"公共設施[Public]","charge":"","number_of_courts":1,"address":"","light":null}},{"type":"Feature","geometry":{"type":"Point","coordinates":[120.546571,23.71265]},"properties":{"cartodb_id":373,"name":"斗六高級中學網球場\n","description":false,"tel":"(05)5322039\n","surface":"硬地[hard]","city":"雲林縣[Yunlin County]","type":"高中或國中小[School]","charge":"","number_of_courts":1,"address":"","light":null}},{"type":"Feature","geometry":{"type":"Point","coordinates":[120.924459,23.904335]},"properties":{"cartodb_id":375,"name":"新城國小網球場\n","description":false,"tel":"(04)92895724\n","surface":"硬地[hard]","city":"南投縣[Nantou County]","type":"高中或國中小[School]","charge":"","number_of_courts":1,"address":"","light":null}},{"type":"Feature","geometry":{"type":"Point","coordinates":[121.082712,22.835127]},"properties":{"cartodb_id":397,"name":"東成國小運動中心\n","description":false,"tel":"(08)9571124\n","surface":"硬地[hard]","city":"臺東縣[Taitung County]","type":"高中或國中小[School]","charge":"","number_of_courts":1,"address":"","light":null}},{"type":"Feature","geometry":{"type":"Point","coordinates":[121.185521,24.788695]},"properties":{"cartodb_id":421,"name":"關西高中網球場\n","description":false,"tel":"03-5872049#223\n","surface":"硬地[hard]","city":"新竹縣[Hsinchu County]","type":"高中或國中小[School]","charge":"","number_of_courts":1,"address":"","light":null}},{"type":"Feature","geometry":{"type":"Point","coordinates":[120.392475,23.604417]},"properties":{"cartodb_id":423,"name":"溪口國小網球場\n","description":false,"tel":"(05)2691013-918\n","surface":"硬地[hard]","city":"嘉義縣[Chiayi County]","type":"高中或國中小[School]","charge":"","number_of_courts":1,"address":"","light":null}},{"type":"Feature","geometry":{"type":"Point","coordinates":[121.325342,25.000698]},"properties":{"cartodb_id":71,"name":"退輔會訓練中心","description":false,"tel":"","surface":"硬地[hard]","city":"桃園市[Taoyuan City]","type":"其他[other]","charge":"","number_of_courts":1,"address":"","light":null}},{"type":"Feature","geometry":{"type":"Point","coordinates":[120.299024,22.626115]},"properties":{"cartodb_id":5,"name":"民生網球場","description":false,"tel":"07-3315416\n","surface":"紅土[clay]","city":"高雄市[Kaohsiung City]","type":"公共設施[Public]","charge":"會員制，年費","number_of_courts":4,"address":"高雄市新興區民生一路、中山一路","light":true}},{"type":"Feature","geometry":{"type":"Point","coordinates":[121.571794,25.062488]},"properties":{"cartodb_id":175,"name":"台北市彩虹河濱公園網球場","description":false,"tel":"","surface":"硬地[hard]","city":"台北市[Taipei City]","type":"公共設施[Public]","charge":"","number_of_courts":1,"address":"","light":null}},{"type":"Feature","geometry":{"type":"Point","coordinates":[121.544712,25.022102]},"properties":{"cartodb_id":427,"name":"台北教育大學網球場(紅土)\n","description":false,"tel":"(02)27321104\n","surface":"紅土[clay]","city":"台北市[Taipei City]","type":"大專院校[University]","charge":"","number_of_courts":1,"address":"","light":null}},{"type":"Feature","geometry":{"type":"Point","coordinates":[120.507748,22.488371]},"properties":{"cartodb_id":87,"name":"南州國小網球場\n","description":false,"tel":"(08)8642097\n","surface":"紅土[clay]","city":"屏東縣[Pintung County]","type":"高中或國中小[School]","charge":"","number_of_courts":1,"address":"屏東縣南州鄉溪南村人和路191號","light":null}},{"type":"Feature","geometry":{"type":"Point","coordinates":[120.377966,22.552147]},"properties":{"cartodb_id":82,"name":"高雄市政府環境保護局南區資源回收廠回饋設施","description":false,"tel":"07-8039802","surface":"硬地[hard]","city":"高雄市[Kaohsiung City]","type":"公共設施[Public]","charge":"","number_of_courts":1,"address":"高雄市小港區北林路6-2號","light":null}},{"type":"Feature","geometry":{"type":"Point","coordinates":[120.680807,24.150163]},"properties":{"cartodb_id":187,"name":"硬地球場一面","description":false,"tel":"","surface":"硬地[hard]","city":"台中市[Taichung City]","type":"其他[other]","charge":"","number_of_courts":1,"address":"","light":null}},{"type":"Feature","geometry":{"type":"Point","coordinates":[120.437692,24.044431]},"properties":{"cartodb_id":178,"name":"西勢國小網球場\n","description":false,"tel":"(04)7772317\n","surface":"硬地[hard]","city":"彰化縣[Changhua County]","type":"高中或國中小[School]","charge":"","number_of_courts":1,"address":"","light":null}},{"type":"Feature","geometry":{"type":"Point","coordinates":[120.469763,23.67856]},"properties":{"cartodb_id":211,"name":"東明國中網球場\n","description":false,"tel":"(05)5975474*31\n","surface":"硬地[hard]","city":"雲林縣[Yunlin County]","type":"高中或國中小[School]","charge":"","number_of_courts":1,"address":"","light":null}},{"type":"Feature","geometry":{"type":"Point","coordinates":[121.46913,25.086926]},"properties":{"cartodb_id":320,"name":"空中大學網球場\n","description":false,"tel":"(02)22829355*5518\n","surface":"硬地[hard]","city":"新北市[New Taipei City]","type":"大專院校[University]","charge":"","number_of_courts":1,"address":"","light":null}},{"type":"Feature","geometry":{"type":"Point","coordinates":[121.4355,25.174761]},"properties":{"cartodb_id":352,"name":"真理大學網球場\n","description":false,"tel":"(02)26212121轉1714\n","surface":"硬地[hard]","city":"新北市[New Taipei City]","type":"大專院校[University]","charge":"","number_of_courts":1,"address":"","light":null}},{"type":"Feature","geometry":{"type":"Point","coordinates":[121.603715,23.986446]},"properties":{"cartodb_id":413,"name":"花蓮高商網球場\n","description":false,"tel":"(03)8322532\n","surface":"硬地[hard]","city":"花蓮縣[Hualien County]","type":"高中或國中小[School]","charge":"","number_of_courts":1,"address":"","light":null}},{"type":"Feature","geometry":{"type":"Point","coordinates":[121.445988,25.007207]},"properties":{"cartodb_id":388,"name":"華僑實驗高級中學網球場(館)\n","description":false,"tel":"(02)29684131轉341\n","surface":"硬地[hard]","city":"新北市[New Taipei City]","type":"高中或國中小[School]","charge":"","number_of_courts":1,"address":"","light":null}},{"type":"Feature","geometry":{"type":"Point","coordinates":[120.309922,22.585777]},"properties":{"cartodb_id":16,"name":"前鎮國小網球場","description":false,"tel":"07-8212448","surface":"紅土[clay]","city":"高雄市[Kaohsiung City]","type":"高中或國中小[School]","charge":"會員制","number_of_courts":2,"address":"高雄市前鎮區新生路200號","light":true}},{"type":"Feature","geometry":{"type":"Point","coordinates":[121.089104,24.937109]},"properties":{"cartodb_id":210,"name":"楊梅市富岡運動公園\n","description":false,"tel":"(03)4780315\n","surface":"硬地[hard]","city":"桃園市[Taoyuan City]","type":"公共設施[Public]","charge":"","number_of_courts":1,"address":"桃園市楊梅區新富七街與員德路路口\n","light":null}},{"type":"Feature","geometry":{"type":"Point","coordinates":[120.293975,22.693144]},"properties":{"cartodb_id":234,"name":"左營高中網球場(硬地)","description":false,"tel":"(07)5822010\n","surface":"硬地[hard]","city":"高雄市[Kaohsiung City]","type":"高中或國中小[School]","charge":"","number_of_courts":1,"address":"高雄市左營區海功路55號\n","light":null}},{"type":"Feature","geometry":{"type":"Point","coordinates":[120.470498,23.795979]},"properties":{"cartodb_id":299,"name":"西螺農工網球場\n","description":false,"tel":"(05)5862024分機602\n","surface":"紅土[clay]","city":"雲林縣[Yunlin County]","type":"高中或國中小[School]","charge":"","number_of_courts":1,"address":"雲林縣西螺鎮大同路4號\n","light":null}},{"type":"Feature","geometry":{"type":"Point","coordinates":[120.358897,23.354463]},"properties":{"cartodb_id":154,"name":"後壁國中網球場\n","description":false,"tel":"(06)6871974\n","surface":"硬地[hard]","city":"台南市[Tainan City]","type":"高中或國中小[School]","charge":"","number_of_courts":1,"address":"臺南市後壁區嘉苳里124之20號\n","light":null}},{"type":"Feature","geometry":{"type":"Point","coordinates":[120.183279,22.994229]},"properties":{"cartodb_id":63,"name":"新南國小網球場","description":false,"tel":"(06)2973363","surface":"硬地[hard]","city":"台南市[Tainan City]","type":"高中或國中小[School]","charge":"","number_of_courts":1,"address":"臺南市安平區怡平路6號","light":null}},{"type":"Feature","geometry":{"type":"Point","coordinates":[120.687314,24.158545]},"properties":{"cartodb_id":440,"name":"新民高中網球場\n","description":false,"tel":"04-22334105#6414\n","surface":"硬地[hard]","city":"台中市[Taichung City]","type":"高中或國中小[School]","charge":"","number_of_courts":1,"address":"","light":null}},{"type":"Feature","geometry":{"type":"Point","coordinates":[121.544417,25.022146]},"properties":{"cartodb_id":426,"name":"臺北教育大學網球場\n","description":false,"tel":"(02)27321104\n","surface":"硬地[hard]","city":"台北市[Taipei City]","type":"大專院校[University]","charge":"","number_of_courts":1,"address":"","light":null}},{"type":"Feature","geometry":{"type":"Point","coordinates":[120.497771,24.035005]},"properties":{"cartodb_id":432,"name":"秀水高工網球場\n","description":false,"tel":"(04)7697021\n","surface":"硬地[hard]","city":"彰化縣[Changhua County]","type":"高中或國中小[School]","charge":"","number_of_courts":1,"address":"","light":null}},{"type":"Feature","geometry":{"type":"Point","coordinates":[120.465555,23.471046]},"properties":{"cartodb_id":430,"name":"嘉義高工網球場\n","description":false,"tel":"(05)2754092\n","surface":"硬地[hard]","city":"嘉義市[Chiayi City]","type":"高中或國中小[School]","charge":"","number_of_courts":1,"address":"","light":null}},{"type":"Feature","geometry":{"type":"Point","coordinates":[120.327405,22.649761]},"properties":{"cartodb_id":218,"name":"高雄應用科技大學網球場(紅土)\n","description":false,"tel":"(07)3814526-3502\n","surface":"紅土[clay]","city":"高雄市[Kaohsiung City]","type":"大專院校[University]","charge":"","number_of_courts":1,"address":"","light":null}},{"type":"Feature","geometry":{"type":"Point","coordinates":[120.327409,22.649448]},"properties":{"cartodb_id":219,"name":"高雄應用科技大學網球場(硬地)","description":false,"tel":"(07)3814526-3502\n","surface":"硬地[hard]","city":"高雄市[Kaohsiung City]","type":"大專院校[University]","charge":"","number_of_courts":1,"address":"","light":null}},{"type":"Feature","geometry":{"type":"Point","coordinates":[120.695763,23.950352]},"properties":{"cartodb_id":442,"name":"中興高中網球場\n","description":false,"tel":"(049)2331014\n","surface":"硬地[hard]","city":"南投縣[Nantou County]","type":"高中或國中小[School]","charge":"","number_of_courts":1,"address":"","light":null}},{"type":"Feature","geometry":{"type":"Point","coordinates":[121.532026,25.068689]},"properties":{"cartodb_id":97,"name":"新生公園網球場","description":false,"tel":"(02)25850192\n","surface":"硬地[hard]","city":"台北市[Taipei City]","type":"公共設施[Public]","charge":"","number_of_courts":3,"address":"臺北市中山區新生北路三段105號","light":null}},{"type":"Feature","geometry":{"type":"Point","coordinates":[121.448694,25.226339]},"properties":{"cartodb_id":89,"name":"聖約翰科技大學自強網球場\n","description":false,"tel":"(02)28013131#6238\n","surface":"硬地[hard]","city":"新北市[New Taipei City]","type":"大專院校[University]","charge":"","number_of_courts":4,"address":"新北市淡水區淡金路四段499號","light":null}},{"type":"Feature","geometry":{"type":"Point","coordinates":[120.298625,22.639655]},"properties":{"cartodb_id":15,"name":"高雄中學網球場","description":false,"tel":"(07)2862550\n","surface":"紅土[clay]","city":"高雄市[Kaohsiung City]","type":"高中或國中小[School]","charge":"會員制","number_of_courts":3,"address":"高雄市三民區建國三路50號","light":null}},{"type":"Feature","geometry":{"type":"Point","coordinates":[120.344914,22.632055]},"properties":{"cartodb_id":27,"name":"鳳山高中網球場","description":false,"tel":"(07)7463150\n","surface":"紅土[clay]","city":"高雄市[Kaohsiung City]","type":"高中或國中小[School]","charge":"","number_of_courts":2,"address":"高雄市鳳山區光復路二段130號","light":null}},{"type":"Feature","geometry":{"type":"Point","coordinates":[120.322955,22.625675]},"properties":{"cartodb_id":29,"name":"國立高雄師範大學和平校區網球場","description":false,"tel":"(07)7172930分機1553\n","surface":"硬地[hard]","city":"高雄市[Kaohsiung City]","type":"大專院校[University]","charge":"","number_of_courts":2,"address":"高雄市苓雅區和平一路116號","light":null}},{"type":"Feature","geometry":{"type":"Point","coordinates":[120.487152,22.692247]},"properties":{"cartodb_id":96,"name":"屏東市廣興公園網球場\n","description":false,"tel":"(08)7516932\n","surface":"硬地[hard]","city":"屏東市[Pinting City]","type":"公共設施[Public]","charge":"","number_of_courts":3,"address":"屏東市忠孝路屏東監理站對面","light":null}},{"type":"Feature","geometry":{"type":"Point","coordinates":[121.58125,25.08247]},"properties":{"cartodb_id":95,"name":"內湖區碧湖公園\n","description":false,"tel":"(02)25850192\n","surface":"硬地[hard]","city":"台北市[Taipei City]","type":"公共設施[Public]","charge":"","number_of_courts":1,"address":"臺北市內湖區內湖路二段175號","light":null}},{"type":"Feature","geometry":{"type":"Point","coordinates":[121.557113,25.10444]},"properties":{"cartodb_id":105,"name":"至善國中戶外網球場\n","description":false,"tel":"(02)28411350#32\n","surface":"硬地[hard]","city":"台北市[Taipei City]","type":"高中或國中小[School]","charge":"","number_of_courts":1,"address":"臺北市士林區臨溪里至善路2段360號","light":null}},{"type":"Feature","geometry":{"type":"Point","coordinates":[120.322019,22.643104]},"properties":{"cartodb_id":7,"name":"中山網球場","description":false,"tel":"","surface":"紅土[clay]","city":"高雄市[Kaohsiung City]","type":"公共設施[Public]","charge":"會員制，年費","number_of_courts":8,"address":"高雄市三民區平等路12號","light":true}},{"type":"Feature","geometry":{"type":"Point","coordinates":[121.375295,23.497599]},"properties":{"cartodb_id":200,"name":"瑞穗國小網球場\n","description":false,"tel":"(03)8876366\n","surface":"硬地[hard]","city":"花蓮縣[Hualien County]","type":"高中或國中小[School]","charge":"","number_of_courts":1,"address":"花蓮縣瑞穗鄉溫泉路一段19號\n","light":null}},{"type":"Feature","geometry":{"type":"Point","coordinates":[120.953668,24.649189]},"properties":{"cartodb_id":314,"name":"三灣國中網球場\n","description":false,"tel":"037-831002\n","surface":"硬地[hard]","city":"苗栗縣[Miaoli County]","type":"高中或國中小[School]","charge":"","number_of_courts":1,"address":"苗栗縣三灣鄉三灣村忠信路17號\n","light":null}},{"type":"Feature","geometry":{"type":"Point","coordinates":[120.721773,24.447394]},"properties":{"cartodb_id":222,"name":"南和國中網球場\n","description":false,"tel":"(03)7782404#19\n","surface":"硬地[hard]","city":"苗栗縣[Miaoli County]","type":"高中或國中小[School]","charge":"","number_of_courts":1,"address":"苗栗縣通霄鎮南和里112之1號\n","light":null}},{"type":"Feature","geometry":{"type":"Point","coordinates":[121.383683,25.034885]},"properties":{"cartodb_id":235,"name":"體育大學網球館(室內)\n","description":false,"tel":"(03)3283201#3138\n","surface":"硬地[hard]","city":"桃園市[Taoyuan City]","type":"大專院校[University]","charge":"","number_of_courts":null,"address":"桃園市龜山區文化一路250號\n","light":null}},{"type":"Feature","geometry":{"type":"Point","coordinates":[120.158908,23.611608]},"properties":{"cartodb_id":240,"name":"下崙國小網球場\n","description":false,"tel":"(05)7991184\n","surface":"硬地[hard]","city":"雲林縣[Yunlin County]","type":"高中或國中小[School]","charge":"","number_of_courts":1,"address":"雲林縣口湖鄉崙中村福安路200號\n","light":null}},{"type":"Feature","geometry":{"type":"Point","coordinates":[120.540198,23.699214]},"properties":{"cartodb_id":207,"name":"鎮南國小室外綜合球場\n","description":false,"tel":"(05)5322524\n","surface":"硬地[hard]","city":"雲林縣[Yunlin County]","type":"高中或國中小[School]","charge":"","number_of_courts":1,"address":"雲林縣斗六市社口里南揚街60號\n","light":null}},{"type":"Feature","geometry":{"type":"Point","coordinates":[120.450228,23.707532]},"properties":{"cartodb_id":238,"name":"平和國小網球場\n","description":false,"tel":"(05)6322742\n","surface":"硬地[hard]","city":"雲林縣[Yunlin County]","type":"高中或國中小[School]","charge":"","number_of_courts":1,"address":"雲林縣虎尾鎮平和里光復路22號\n","light":null}},{"type":"Feature","geometry":{"type":"Point","coordinates":[121.494697,25.083032]},"properties":{"cartodb_id":247,"name":"碧華國中網球場\n","description":false,"tel":"(02)29851121\n","surface":"硬地[hard]","city":"新北市[New Taipei City]","type":"高中或國中小[School]","charge":"","number_of_courts":1,"address":"新北市三重區自強路五段66號\n","light":null}},{"type":"Feature","geometry":{"type":"Point","coordinates":[120.965225,24.792664]},"properties":{"cartodb_id":250,"name":"新竹教育大學網球場\n","description":false,"tel":"(03)5213132轉1601\n","surface":"硬地[hard]","city":"新竹市[Hsinchu City]","type":"大專院校[University]","charge":"","number_of_courts":null,"address":"新竹市東區南大路521號\n","light":null}},{"type":"Feature","geometry":{"type":"Point","coordinates":[121.14535,24.718026]},"properties":{"cartodb_id":212,"name":"橫山國中網球場(館)\n","description":false,"tel":"(03)5931665\n","surface":"硬地[hard]","city":"新竹縣[Hsinchu County]","type":"高中或國中小[School]","charge":"","number_of_courts":1,"address":"新竹縣橫山鄉中豐路二段415號\n","light":null}},{"type":"Feature","geometry":{"type":"Point","coordinates":[120.5611,23.580783]},"properties":{"cartodb_id":310,"name":"梅山國小田徑場\n","description":false,"tel":"(05)2621004\n","surface":"硬地[hard]","city":"嘉義縣[Chiayi County]","type":"高中或國中小[School]","charge":"","number_of_courts":1,"address":"嘉義縣梅山鄉梅東村中山路28號之1\n","light":null}},{"type":"Feature","geometry":{"type":"Point","coordinates":[121.514666,25.104394]},"properties":{"cartodb_id":309,"name":"中正高中網球場\n","description":false,"tel":"(02)28234811-330\n","surface":"硬地[hard]","city":"台北市[Taipei City]","type":"高中或國中小[School]","charge":"","number_of_courts":1,"address":"臺北市北投區文林北路77號\n","light":null}},{"type":"Feature","geometry":{"type":"Point","coordinates":[120.137166,23.183562]},"properties":{"cartodb_id":138,"name":"後港國小網球場","description":false,"tel":"(06)7941305\n","surface":"硬地[hard]","city":"台南市[Tainan City]","type":"高中或國中小[School]","charge":"","number_of_courts":1,"address":"臺南市七股區大潭里台潭1號\n","light":null}},{"type":"Feature","geometry":{"type":"Point","coordinates":[120.218252,23.081217]},"properties":{"cartodb_id":120,"name":"南興國小網球場(館)\n","description":false,"tel":"(06)5931038\n","surface":"紅土[clay]","city":"台南市[Tainan City]","type":"高中或國中小[School]","charge":"","number_of_courts":1,"address":"臺南市安定區六嘉里30號\n","light":null}},{"type":"Feature","geometry":{"type":"Point","coordinates":[120.676119,23.756763]},"properties":{"cartodb_id":377,"name":"雲林國小\n","description":false,"tel":"(04)92643321\n","surface":"硬地[hard]","city":"南投縣[Nantou County]","type":"高中或國中小[School]","charge":"","number_of_courts":1,"address":"","light":null}},{"type":"Feature","geometry":{"type":"Point","coordinates":[120.331932,22.725872]},"properties":{"cartodb_id":312,"name":"楠陽國小網球場\n","description":false,"tel":"(07)3520675\n","surface":"硬地[hard]","city":"高雄市[Kaohsiung City]","type":"高中或國中小[School]","charge":"","number_of_courts":1,"address":"","light":null}},{"type":"Feature","geometry":{"type":"Point","coordinates":[120.68378,24.108289]},"properties":{"cartodb_id":384,"name":"中興大學附屬高級中學網球場\n","description":false,"tel":"(04)24875199#521\n","surface":"硬地[hard]","city":"台中市[Taichung City]","type":"高中或國中小[School]","charge":"","number_of_courts":1,"address":"","light":null}},{"type":"Feature","geometry":{"type":"Point","coordinates":[121.051274,24.837396]},"properties":{"cartodb_id":412,"name":"枋寮國小網球場\n","description":false,"tel":"(03)5882081\n","surface":"硬地[hard]","city":"新竹縣[Hsinchu County]","type":"高中或國中小[School]","charge":"","number_of_courts":1,"address":"","light":null}},{"type":"Feature","geometry":{"type":"Point","coordinates":[120.508255,23.750537]},"properties":{"cartodb_id":415,"name":"莿桐國中軟網球場\n","description":false,"tel":"(05)5842014\n","surface":"硬地[hard]","city":"雲林縣[Yunlin County]","type":"高中或國中小[School]","charge":"","number_of_courts":1,"address":"","light":null}},{"type":"Feature","geometry":{"type":"Point","coordinates":[121.468564,25.070075]},"properties":{"cartodb_id":341,"name":"更寮國小綜合球場\n","description":false,"tel":"(02)29824591\n","surface":"硬地[hard]","city":"新北市[New Taipei City]","type":"高中或國中小[School]","charge":"","number_of_courts":1,"address":"","light":null}},{"type":"Feature","geometry":{"type":"Point","coordinates":[120.481567,23.870609]},"properties":{"cartodb_id":180,"name":"芙朝國小網球場\n","description":false,"tel":"(04)8925057\n","surface":"硬地[hard]","city":"彰化縣[Changhua County]","type":"高中或國中小[School]","charge":"","number_of_courts":1,"address":"","light":null}},{"type":"Feature","geometry":{"type":"Point","coordinates":[120.464863,23.747586]},"properties":{"cartodb_id":393,"name":"文賢國小網球場\n","description":false,"tel":"(05)5863164\n","surface":"硬地[hard]","city":"雲林縣[Yunlin County]","type":"高中或國中小[School]","charge":"","number_of_courts":1,"address":"","light":null}},{"type":"Feature","geometry":{"type":"Point","coordinates":[121.488887,25.065645]},"properties":{"cartodb_id":322,"name":"修德國小網球場","description":false,"tel":"","surface":"硬地[hard]","city":"新北市[New Taipei City]","type":"高中或國中小[School]","charge":"","number_of_courts":2,"address":"","light":null}},{"type":"Feature","geometry":{"type":"Point","coordinates":[121.534753,24.999672]},"properties":{"cartodb_id":38,"name":"運動場","description":false,"tel":"","surface":"硬地[hard]","city":"台北市[Taipei City]","type":"公共設施[Public]","charge":"","number_of_courts":2,"address":"","light":null}},{"type":"Feature","geometry":{"type":"Point","coordinates":[121.507033,25.022269]},"properties":{"cartodb_id":36,"name":"萬華區青年公園網球場","description":false,"tel":"02-25702330#6513","surface":"硬地[hard]","city":"台北市[Taipei City]","type":"公共設施[Public]","charge":"","number_of_courts":6,"address":"臺北市萬華區水源路199號","light":null}},{"type":"Feature","geometry":{"type":"Point","coordinates":[120.785468,23.828415]},"properties":{"cartodb_id":67,"name":"集集鎮綜合運動場","description":false,"tel":"","surface":"硬地[hard]","city":"南投縣[Nantou County]","type":"公共設施[Public]","charge":"","number_of_courts":null,"address":"南投縣集集鎮民生路61號","light":null}},{"type":"Feature","geometry":{"type":"Point","coordinates":[120.654739,24.438139]},"properties":{"cartodb_id":65,"name":"客庄國小網球場","description":false,"tel":"","surface":"硬地[hard]","city":"苗栗縣[Miaoli County]","type":"高中或國中小[School]","charge":"","number_of_courts":2,"address":"","light":null}},{"type":"Feature","geometry":{"type":"Point","coordinates":[121.539766,25.035457]},"properties":{"cartodb_id":254,"name":"師大附中網球場\n","description":false,"tel":"(02)27075215\n","surface":"硬地[hard]","city":"台北市[Taipei City]","type":"高中或國中小[School]","charge":"","number_of_courts":2,"address":"","light":null}},{"type":"Feature","geometry":{"type":"Point","coordinates":[121.300046,25.008838]},"properties":{"cartodb_id":301,"name":"慈文國中操場附設網球場\n","description":false,"tel":"(03)3269340#313\n","surface":"硬地[hard]","city":"桃園市[Taoyuan City]","type":"高中或國中小[School]","charge":"","number_of_courts":2,"address":"","light":null}},{"type":"Feature","geometry":{"type":"Point","coordinates":[121.48425,23.85793]},"properties":{"cartodb_id":302,"name":"臺灣觀光學院網球場\n","description":false,"tel":"(038)653906#835\n","surface":"硬地[hard]","city":"花蓮縣[Hualien County]","type":"大專院校[University]","charge":"","number_of_courts":2,"address":"","light":null}},{"type":"Feature","geometry":{"type":"Point","coordinates":[120.261755,23.190461]},"properties":{"cartodb_id":330,"name":"曾文農工網球場(硬地)\n","description":false,"tel":"(06)5721137\n","surface":"硬地[hard]","city":"台南市[Tainan City]","type":"高中或國中小[School]","charge":"","number_of_courts":2,"address":"","light":null}},{"type":"Feature","geometry":{"type":"Point","coordinates":[120.31685,22.72604]},"properties":{"cartodb_id":333,"name":"高雄海洋科技大學網球場(館)\n","description":false,"tel":"(07)3617141\n","surface":"硬地[hard]","city":"高雄市[Kaohsiung City]","type":"大專院校[University]","charge":"","number_of_courts":2,"address":"","light":null}},{"type":"Feature","geometry":{"type":"Point","coordinates":[120.34849,23.755663]},"properties":{"cartodb_id":335,"name":"崙背國中網球場\n","description":false,"tel":"(05)6962013\n","surface":"硬地[hard]","city":"雲林縣[Yunlin County]","type":"高中或國中小[School]","charge":"","number_of_courts":2,"address":"","light":null}},{"type":"Feature","geometry":{"type":"Point","coordinates":[121.53493,23.89951]},"properties":{"cartodb_id":334,"name":"東華大學網球場","description":false,"tel":"(03)8632619\n","surface":"硬地[hard]","city":"花蓮縣[Hualien County]","type":"大專院校[University]","charge":"","number_of_courts":2,"address":"","light":null}},{"type":"Feature","geometry":{"type":"Point","coordinates":[120.679337,23.760732]},"properties":{"cartodb_id":340,"name":"竹山高中網球場\n","description":false,"tel":"(049)2643344-126\n","surface":"硬地[hard]","city":"南投縣[Nantou County]","type":"高中或國中小[School]","charge":"","number_of_courts":2,"address":"","light":null}},{"type":"Feature","geometry":{"type":"Point","coordinates":[120.617856,23.94083]},"properties":{"cartodb_id":59,"name":"員林運動公園-紅土","description":false,"tel":"","surface":"紅土[clay]","city":"彰化縣[Changhua County]","type":"公共設施[Public]","charge":"","number_of_courts":2,"address":"彰化縣員林鎮員南路17號","light":null}},{"type":"Feature","geometry":{"type":"Point","coordinates":[120.626401,24.107898]},"properties":{"cartodb_id":80,"name":"烏日網球場","description":false,"tel":"04-25120998","surface":"硬地[hard]","city":"台中市[Taichung City]","type":"公共設施[Public]","charge":"","number_of_courts":2,"address":"臺中市烏日區光日路228號","light":null}},{"type":"Feature","geometry":{"type":"Point","coordinates":[120.408118,23.772409]},"properties":{"cartodb_id":348,"name":"二崙國中網球場","description":false,"tel":"05 598 2020","surface":"硬地[hard]","city":"雲林縣[Yunlin County]","type":"高中或國中小[School]","charge":"","number_of_courts":2,"address":"","light":null}},{"type":"Feature","geometry":{"type":"Point","coordinates":[120.290418,22.637099]},"properties":{"cartodb_id":268,"name":"三民國小網球場\n","description":false,"tel":"(07)2810378\n","surface":"紅土[clay]","city":"高雄市[Kaohsiung City]","type":"高中或國中小[School]","charge":"","number_of_courts":1,"address":"高雄市三民區建國三路216號\n","light":null}},{"type":"Feature","geometry":{"type":"Point","coordinates":[120.537019,23.715656]},"properties":{"cartodb_id":286,"name":"公誠國小網球場\n","description":false,"tel":"(05)5322536\n","surface":"硬地[hard]","city":"雲林縣[Yunlin County]","type":"高中或國中小[School]","charge":"","number_of_courts":1,"address":"雲林縣斗六市鎮北里北平路95號\n","light":null}},{"type":"Feature","geometry":{"type":"Point","coordinates":[121.376881,25.068853]},"properties":{"cartodb_id":280,"name":"麗園國小網球場","description":false,"tel":"(02)26091061分機722\n","surface":"硬地[hard]","city":"新北市[New Taipei City]","type":"高中或國中小[School]","charge":"","number_of_courts":1,"address":"新北市林口區忠孝路591號\n","light":null}},{"type":"Feature","geometry":{"type":"Point","coordinates":[121.43288,25.033552]},"properties":{"cartodb_id":252,"name":"輔仁大學網球場\n","description":false,"tel":"(02)29053044\n","surface":"硬地[hard]","city":"新北市[New Taipei City]","type":"大專院校[University]","charge":"","number_of_courts":2,"address":"新北市新莊區中正路510號\n","light":null}},{"type":"Feature","geometry":{"type":"Point","coordinates":[120.47005,23.564179]},"properties":{"cartodb_id":276,"name":"國立中正大學網球場(紅土)","description":false,"tel":"(05)2720411\n","surface":"紅土[clay]","city":"嘉義縣[Chiayi County]","type":"大專院校[University]","charge":"","number_of_courts":2,"address":"嘉義縣民雄鄉三興村7鄰大學路一段168號\n","light":null}},{"type":"Feature","geometry":{"type":"Point","coordinates":[120.544865,23.992766]},"properties":{"cartodb_id":193,"name":"大村國小網球場\n","description":false,"tel":"(04)8522794\n","surface":"硬地[hard]","city":"彰化縣[Changhua County]","type":"高中或國中小[School]","charge":"","number_of_courts":1,"address":"彰化縣大村鄉大村村中正西路381號\n","light":null}},{"type":"Feature","geometry":{"type":"Point","coordinates":[120.535163,24.103611]},"properties":{"cartodb_id":192,"name":"新庄國小網球場\n","description":false,"tel":"(04)7353267#103\n","surface":"硬地[hard]","city":"彰化縣[Changhua County]","type":"高中或國中小[School]","charge":"","number_of_courts":1,"address":"彰化縣和美鎮犁盛里彰新路二段500號\n","light":null}},{"type":"Feature","geometry":{"type":"Point","coordinates":[120.670038,24.180164]},"properties":{"cartodb_id":125,"name":"大德國中網球場","description":false,"tel":"(04)22916984\n","surface":"硬地[hard]","city":"台中市[Taichung City]","type":"高中或國中小[School]","charge":"","number_of_courts":1,"address":"臺中市北屯區雷中街2之23號\n","light":null}},{"type":"Feature","geometry":{"type":"Point","coordinates":[121.565822,25.086118]},"properties":{"cartodb_id":253,"name":"德明財經科技大學網球場\n","description":false,"tel":"(02)26585801ex2672\n","surface":"硬地[hard]","city":"台北市[Taipei City]","type":"大專院校[University]","charge":"","number_of_courts":2,"address":"臺北市內湖區環山路一段56號\n","light":null}},{"type":"Feature","geometry":{"type":"Point","coordinates":[121.155848,22.973633]},"properties":{"cartodb_id":285,"name":"瑞源國中網球場\n","description":false,"tel":"(089)581425\n","surface":"硬地[hard]","city":"臺東縣[Taitung County]","type":"高中或國中小[School]","charge":"","number_of_courts":1,"address":"臺東縣鹿野鄉瑞和村瑞景路三段1號\n","light":null}},{"type":"Feature","geometry":{"type":"Point","coordinates":[120.329167,22.647117]},"properties":{"cartodb_id":422,"name":"高雄應用科技大學網球場(紅土)","description":false,"tel":"","surface":"紅土[clay]","city":"高雄市[Kaohsiung City]","type":"大專院校[University]","charge":"","number_of_courts":2,"address":"","light":null}},{"type":"Feature","geometry":{"type":"Point","coordinates":[121.560992,25.024186]},"properties":{"cartodb_id":396,"name":"臺北醫學大學網球場\n","description":false,"tel":"(02)27361661\n","surface":"硬地[hard]","city":"台北市[Taipei City]","type":"大專院校[University]","charge":"","number_of_courts":2,"address":"","light":null}},{"type":"Feature","geometry":{"type":"Point","coordinates":[120.486975,22.661024]},"properties":{"cartodb_id":398,"name":"屏東高工網球場\n","description":false,"tel":"(08)7523781\n","surface":"紅土[clay]","city":"屏東市[Pinting City]","type":"高中或國中小[School]","charge":"","number_of_courts":2,"address":"","light":null}},{"type":"Feature","geometry":{"type":"Point","coordinates":[120.7104,24.096161]},"properties":{"cartodb_id":425,"name":"修平科技大學網球場\n","description":false,"tel":"04-24961100#6811\n","surface":"硬地[hard]","city":"台中市[Taichung City]","type":"大專院校[University]","charge":"","number_of_courts":2,"address":"","light":null}},{"type":"Feature","geometry":{"type":"Point","coordinates":[120.435605,23.558534]},"properties":{"cartodb_id":424,"name":"東榮國小網球場\n","description":false,"tel":"(05)2262076\n","surface":"硬地[hard]","city":"嘉義縣[Chiayi County]","type":"高中或國中小[School]","charge":"","number_of_courts":2,"address":"","light":null}},{"type":"Feature","geometry":{"type":"Point","coordinates":[120.813861,24.543212]},"properties":{"cartodb_id":444,"name":"聯合大學網球場\n","description":false,"tel":"(037)381044\n","surface":"硬地[hard]","city":"苗栗縣[Miaoli County]","type":"大專院校[University]","charge":"","number_of_courts":2,"address":"","light":null}},{"type":"Feature","geometry":{"type":"Point","coordinates":[121.326552,24.997678]},"properties":{"cartodb_id":70,"name":"桃園高中網球場","description":false,"tel":"","surface":"硬地[hard]","city":"桃園市[Taoyuan City]","type":"其他[other]","charge":"","number_of_courts":2,"address":"","light":null}},{"type":"Feature","geometry":{"type":"Point","coordinates":[120.693517,24.150752]},"properties":{"cartodb_id":185,"name":"力行國小網球場","description":false,"tel":"","surface":"硬地[hard]","city":"台中市[Taichung City]","type":"高中或國中小[School]","charge":"","number_of_courts":2,"address":"","light":null}},{"type":"Feature","geometry":{"type":"Point","coordinates":[120.995098,24.789886]},"properties":{"cartodb_id":50,"name":"交通大學綜合球館","description":false,"tel":"","surface":"硬地[hard]","city":"新竹市[Hsinchu City]","type":"大專院校[University]","charge":"","number_of_courts":3,"address":"新竹市東區大學路1001號","light":null}},{"type":"Feature","geometry":{"type":"Point","coordinates":[121.28715,24.880508]},"properties":{"cartodb_id":68,"name":"大溪區立網球場","description":false,"tel":"03-3882201分機102","surface":"硬地[hard]","city":"桃園市[Taoyuan City]","type":"公共設施[Public]","charge":"","number_of_courts":null,"address":"桃園市大溪區普濟路11號","light":null}},{"type":"Feature","geometry":{"type":"Point","coordinates":[120.990388,24.796397]},"properties":{"cartodb_id":54,"name":"清華大學室內網球場","description":false,"tel":"(03)5715131\n","surface":"硬地[hard]","city":"新竹市[Hsinchu City]","type":"大專院校[University]","charge":"","number_of_courts":null,"address":"","light":null}},{"type":"Feature","geometry":{"type":"Point","coordinates":[120.42376,22.657242]},"properties":{"cartodb_id":73,"name":"大樹國中網球場","description":false,"tel":"(07)6512026","surface":"紅土[clay]","city":"高雄市[Kaohsiung City]","type":"高中或國中小[School]","charge":"","number_of_courts":2,"address":"高雄市大樹區九曲里九曲路500號","light":null}},{"type":"Feature","geometry":{"type":"Point","coordinates":[121.592624,25.063678]},"properties":{"cartodb_id":92,"name":"內湖區石潭公園\n","description":false,"tel":"(02)25850192\n","surface":"硬地[hard]","city":"台北市[Taipei City]","type":"公共設施[Public]","charge":"","number_of_courts":1,"address":"臺北市內湖區成功路二段(安康路25巷內)","light":null}},{"type":"Feature","geometry":{"type":"Point","coordinates":[121.001514,24.787606]},"properties":{"cartodb_id":51,"name":"交通大學東區網球場","description":false,"tel":"(03)5712121＃51003\n","surface":"硬地[hard]","city":"新竹市[Hsinchu City]","type":"大專院校[University]","charge":"0","number_of_courts":3,"address":"新竹市東區大學路1001號","light":null}},{"type":"Feature","geometry":{"type":"Point","coordinates":[120.619015,23.940477]},"properties":{"cartodb_id":58,"name":"員林運動公園網球場","description":false,"tel":"","surface":"硬地[hard]","city":"彰化縣[Changhua County]","type":"公共設施[Public]","charge":"","number_of_courts":6,"address":"彰化縣員林鎮員南路17號","light":null}},{"type":"Feature","geometry":{"type":"Point","coordinates":[120.688629,23.980508]},"properties":{"cartodb_id":66,"name":"草屯鎮中山網球場","description":false,"tel":"","surface":"硬地[hard]","city":"南投縣[Nantou County]","type":"公共設施[Public]","charge":"","number_of_courts":4,"address":"南投縣草屯鎮富寮里中正路","light":null}},{"type":"Feature","geometry":{"type":"Point","coordinates":[120.621724,23.940107]},"properties":{"cartodb_id":60,"name":"員林運動公園-室內球場","description":false,"tel":"04-8365400-23\n","surface":"硬地[hard]","city":"彰化縣[Changhua County]","type":"公共設施[Public]","charge":"","number_of_courts":2,"address":"彰化縣員林鎮員南路17號","light":null}},{"type":"Feature","geometry":{"type":"Point","coordinates":[120.654589,24.437287]},"properties":{"cartodb_id":64,"name":"苑裡鎮立體育場","description":false,"tel":"037-869299 / 037-854077","surface":"硬地[hard]","city":"苗栗縣[Miaoli County]","type":"公共設施[Public]","charge":"","number_of_courts":2,"address":"苗栗縣苑裡鎮中正路一段110號","light":null}},{"type":"Feature","geometry":{"type":"Point","coordinates":[121.329272,24.997246]},"properties":{"cartodb_id":69,"name":"陸光網球場","description":false,"tel":"03-3203711轉316","surface":"硬地[hard]","city":"桃園市[Taoyuan City]","type":"其他[other]","charge":"","number_of_courts":2,"address":"桃園市龜山區長壽陸542巷","light":null}},{"type":"Feature","geometry":{"type":"Point","coordinates":[121.554635,24.982951]},"properties":{"cartodb_id":93,"name":"景美女中網球場\n","description":false,"tel":"(02)29368847\n","surface":"硬地[hard]","city":"台北市[Taipei City]","type":"高中或國中小[School]","charge":"","number_of_courts":2,"address":"臺北市文山區樟新里木新路3段312號","light":null}},{"type":"Feature","geometry":{"type":"Point","coordinates":[120.507432,22.668101]},"properties":{"cartodb_id":151,"name":"屏東教育大學網球場(紅土)\n","description":false,"tel":"(08)7226141轉12203\n","surface":"紅土[clay]","city":"屏東市[Pinting City]","type":"大專院校[University]","charge":"","number_of_courts":2,"address":"","light":null}},{"type":"Feature","geometry":{"type":"Point","coordinates":[121.013412,24.788873]},"properties":{"cartodb_id":213,"name":"棒壘球場暨網球場\n","description":false,"tel":"03-5621138\n","surface":"紅土[clay]","city":"新竹市[Hsinchu City]","type":"","charge":"","number_of_courts":2,"address":"","light":null}},{"type":"Feature","geometry":{"type":"Point","coordinates":[121.618145,23.997831]},"properties":{"cartodb_id":339,"name":"花蓮高工網球場\n","description":false,"tel":"(03)8226108*308\n","surface":"紅土[clay]","city":"花蓮縣[Hualien County]","type":"高中或國中小[School]","charge":"","number_of_courts":2,"address":"","light":null}},{"type":"Feature","geometry":{"type":"Point","coordinates":[120.266599,23.187968]},"properties":{"cartodb_id":332,"name":"文正國小網球場","description":false,"tel":"","surface":"紅土[clay]","city":"台南市[Tainan City]","type":"高中或國中小[School]","charge":"","number_of_courts":2,"address":"","light":null}},{"type":"Feature","geometry":{"type":"Point","coordinates":[120.260333,23.180877]},"properties":{"cartodb_id":246,"name":"台灣首府大學網球場\n","description":false,"tel":"(06)5718888\n","surface":"紅土[clay]","city":"台南市[Tainan City]","type":"大專院校[University]","charge":"","number_of_courts":2,"address":"","light":null}},{"type":"Feature","geometry":{"type":"Point","coordinates":[120.425308,23.538536]},"properties":{"cartodb_id":343,"name":"民雄農工網球場\n","description":false,"tel":"(05)2267120轉200\n","surface":"紅土[clay]","city":"嘉義縣[Chiayi County]","type":"高中或國中小[School]","charge":"","number_of_courts":2,"address":"","light":null}},{"type":"Feature","geometry":{"type":"Point","coordinates":[120.262206,23.190175]},"properties":{"cartodb_id":331,"name":"曾文農工網球場(紅土)","description":false,"tel":"(06)5721137\n","surface":"紅土[clay]","city":"台南市[Tainan City]","type":"高中或國中小[School]","charge":"","number_of_courts":2,"address":"","light":null}},{"type":"Feature","geometry":{"type":"Point","coordinates":[120.292718,22.715214]},"properties":{"cartodb_id":10,"name":"右昌國小網球場","description":false,"tel":"07-3612368","surface":"紅土[clay]","city":"高雄市[Kaohsiung City]","type":"高中或國中小[School]","charge":"","number_of_courts":2,"address":"高雄市楠梓區加昌路910號","light":true}},{"type":"Feature","geometry":{"type":"Point","coordinates":[120.291007,22.630569]},"properties":{"cartodb_id":17,"name":"前金國中網球場","description":false,"tel":"07-2725981","surface":"紅土[clay]","city":"高雄市[Kaohsiung City]","type":"高中或國中小[School]","charge":"","number_of_courts":2,"address":"高雄市前金區六合二路278號","light":null}},{"type":"Feature","geometry":{"type":"Point","coordinates":[120.311032,22.752329]},"properties":{"cartodb_id":25,"name":"仕隆國小網球場","description":false,"tel":"07-6113517","surface":"紅土[clay]","city":"高雄市[Kaohsiung City]","type":"高中或國中小[School]","charge":"","number_of_courts":2,"address":"高雄市橋頭區仕隆路進校巷16號","light":null}},{"type":"Feature","geometry":{"type":"Point","coordinates":[120.341653,22.614977]},"properties":{"cartodb_id":28,"name":"鳳新高中網球場","description":false,"tel":"07-7658288","surface":"紅土[clay]","city":"高雄市[Kaohsiung City]","type":"高中或國中小[School]","charge":"","number_of_courts":2,"address":"高雄市鳳山區新富路257號","light":null}},{"type":"Feature","geometry":{"type":"Point","coordinates":[121.534356,25.008347]},"properties":{"cartodb_id":45,"name":"師大分部網球場-紅土","description":false,"tel":"02-77346666","surface":"紅土[clay]","city":"台北市[Taipei City]","type":"大專院校[University]","charge":"","number_of_courts":2,"address":"台北市文山區汀州路四段88號","light":null}},{"type":"Feature","geometry":{"type":"Point","coordinates":[120.495338,22.590881]},"properties":{"cartodb_id":292,"name":"萬丹鄉運動休閒公園網球場\n","description":false,"tel":"08-7772111分機22\n","surface":"紅土[clay]","city":"屏東縣[Pintung County]","type":"公共設施[Public]","charge":"","number_of_courts":2,"address":"屏東縣萬丹鄉大學路960巷6號\n","light":null}},{"type":"Feature","geometry":{"type":"Point","coordinates":[121.219521,24.866476]},"properties":{"cartodb_id":303,"name":"龍潭運動公園簡易網球場\n","description":false,"tel":"4793070#1307\n","surface":"紅土[clay]","city":"桃園市[Taoyuan City]","type":"公共設施[Public]","charge":"","number_of_courts":2,"address":"桃園市龍潭區中正路210號\n","light":null}},{"type":"Feature","geometry":{"type":"Point","coordinates":[120.212496,23.006377]},"properties":{"cartodb_id":362,"name":"臺南二中網球場\n","description":false,"tel":"(06)2514526\n","surface":"紅土[clay]","city":"台南市[Tainan City]","type":"","charge":"","number_of_courts":2,"address":"","light":null}},{"type":"Feature","geometry":{"type":"Point","coordinates":[120.969568,24.80796]},"properties":{"cartodb_id":436,"name":"府後網球場\n","description":false,"tel":"03-5621138\n","surface":"紅土[clay]","city":"新竹市[Hsinchu City]","type":"","charge":"","number_of_courts":2,"address":"","light":null}},{"type":"Feature","geometry":{"type":"Point","coordinates":[120.546616,22.548337]},"properties":{"cartodb_id":385,"name":"潮州高中網球場\n","description":false,"tel":"08-7882017#304\n","surface":"紅土[clay]","city":"屏東縣[Pintung County]","type":"高中或國中小[School]","charge":"","number_of_courts":2,"address":"","light":null}},{"type":"Feature","geometry":{"type":"Point","coordinates":[120.308892,23.580001]},"properties":{"cartodb_id":431,"name":"北港農工網球場\n","description":false,"tel":"(05)7832246轉533\n","surface":"紅土[clay]","city":"雲林縣[Yunlin County]","type":"高中或國中小[School]","charge":"","number_of_courts":2,"address":"","light":null}},{"type":"Feature","geometry":{"type":"Point","coordinates":[121.559215,25.061606]},"properties":{"cartodb_id":46,"name":"民權公園網球場","description":false,"tel":"(02)25850192\n","surface":"硬地[hard]","city":"台北市[Taipei City]","type":"公共設施[Public]","charge":"","number_of_courts":2,"address":"臺北市松山區富錦街359巷2弄","light":null}},{"type":"Feature","geometry":{"type":"Point","coordinates":[120.671588,24.143689]},"properties":{"cartodb_id":406,"name":"國立台中教育大學(紅土)","description":false,"tel":"(04)22195678\n","surface":"紅土[clay]","city":"台中市[Taichung City]","type":"大專院校[University]","charge":"","number_of_courts":null,"address":"","light":null}},{"type":"Feature","geometry":{"type":"Point","coordinates":[120.574635,22.637625]},"properties":{"cartodb_id":98,"name":"東勢國小網球場","description":false,"tel":"(08)7792449\n","surface":"紅土[clay]","city":"屏東縣[Pintung County]","type":"高中或國中小[School]","charge":"","number_of_courts":2,"address":"屏東縣內埔鄉東勢村大同路三段20號","light":null}},{"type":"Feature","geometry":{"type":"Point","coordinates":[120.234418,22.922429]},"properties":{"cartodb_id":102,"name":"文賢國民中學網球場","description":false,"tel":"(06)2662392\n","surface":"紅土[clay]","city":"台南市[Tainan City]","type":"高中或國中小[School]","charge":"","number_of_courts":2,"address":"臺南市仁德區保安里中正路一段185號","light":null}},{"type":"Feature","geometry":{"type":"Point","coordinates":[120.403834,23.318863]},"properties":{"cartodb_id":162,"name":"東山區運動公園","description":false,"tel":"06-6801941\n","surface":"硬地[hard]","city":"台南市[Tainan City]","type":"公共設施[Public]","charge":"","number_of_courts":2,"address":"","light":null}},{"type":"Feature","geometry":{"type":"Point","coordinates":[121.551801,25.051267]},"properties":{"cartodb_id":205,"name":"技擊館頂樓球場","description":false,"tel":"","surface":"硬地[hard]","city":"台北市[Taipei City]","type":"","charge":"","number_of_courts":2,"address":"","light":null}},{"type":"Feature","geometry":{"type":"Point","coordinates":[119.997724,26.226021]},"properties":{"cartodb_id":112,"name":"北竿網羽球館\n","description":false,"tel":"0836-55218\n","surface":"硬地[hard]","city":"金門縣[Kinmen County]","type":"","charge":"","number_of_courts":2,"address":"連江縣北竿鄉塘岐村","light":null}},{"type":"Feature","geometry":{"type":"Point","coordinates":[121.604472,25.062801]},"properties":{"cartodb_id":113,"name":"葫蘆洲運動公園\n","description":false,"tel":"02-27961833轉352\n","surface":"硬地[hard]","city":"台北市[Taipei City]","type":"公共設施[Public]","charge":"","number_of_courts":2,"address":"臺北市內湖區安康路290號","light":null}},{"type":"Feature","geometry":{"type":"Point","coordinates":[120.691343,24.127914]},"properties":{"cartodb_id":296,"name":"大智國小網球場","description":false,"tel":"","surface":"硬地[hard]","city":"台中市[Taichung City]","type":"高中或國中小[School]","charge":"","number_of_courts":2,"address":"","light":null}},{"type":"Feature","geometry":{"type":"Point","coordinates":[121.586128,23.9706]},"properties":{"cartodb_id":318,"name":"宜昌國小網球場","description":false,"tel":"","surface":"硬地[hard]","city":"花蓮縣[Hualien County]","type":"高中或國中小[School]","charge":"","number_of_courts":2,"address":"","light":null}},{"type":"Feature","geometry":{"type":"Point","coordinates":[121.546584,25.094872]},"properties":{"cartodb_id":321,"name":"東吳大學網球場\n","description":false,"tel":"(02)28819471#5606\n","surface":"硬地[hard]","city":"台北市[Taipei City]","type":"大專院校[University]","charge":"","number_of_courts":2,"address":"","light":null}},{"type":"Feature","geometry":{"type":"Point","coordinates":[121.835426,24.60007]},"properties":{"cartodb_id":367,"name":"蘇澳鎮立運動公園\n","description":false,"tel":"(03)997-3421#237\n","surface":"硬地[hard]","city":"宜蘭縣[Yilan County]","type":"公共設施[Public]","charge":"","number_of_courts":2,"address":"","light":null}},{"type":"Feature","geometry":{"type":"Point","coordinates":[121.452519,23.800809]},"properties":{"cartodb_id":351,"name":"林榮國小\n","description":false,"tel":"(03)8771024\n","surface":"硬地[hard]","city":"花蓮縣[Hualien County]","type":"高中或國中小[School]","charge":"","number_of_courts":2,"address":"","light":null}},{"type":"Feature","geometry":{"type":"Point","coordinates":[121.427143,25.055667]},"properties":{"cartodb_id":356,"name":"泰山網球場\n","description":false,"tel":"02-29981382\n","surface":"硬地[hard]","city":"新北市[New Taipei City]","type":"","charge":"","number_of_courts":2,"address":"","light":null}},{"type":"Feature","geometry":{"type":"Point","coordinates":[120.449434,23.472817]},"properties":{"cartodb_id":366,"name":"嘉義女中網球場\n","description":false,"tel":"(05)2254603\n","surface":"硬地[hard]","city":"嘉義市[Chiayi City]","type":"高中或國中小[School]","charge":"","number_of_courts":2,"address":"","light":null}},{"type":"Feature","geometry":{"type":"Point","coordinates":[121.577663,23.998882]},"properties":{"cartodb_id":408,"name":"慈濟大學附中網球場\n","description":false,"tel":"03-8572823#126\n","surface":"硬地[hard]","city":"花蓮縣[Hualien County]","type":"大專院校[University]","charge":"","number_of_courts":2,"address":"","light":null}},{"type":"Feature","geometry":{"type":"Point","coordinates":[121.598898,23.981339]},"properties":{"cartodb_id":166,"name":"花蓮高農網球場\n","description":false,"tel":"(03)8312358\n","surface":"硬地[hard]","city":"花蓮縣[Hualien County]","type":"高中或國中小[School]","charge":"","number_of_courts":2,"address":"花蓮縣花蓮市建國路161號\n","light":null}},{"type":"Feature","geometry":{"type":"Point","coordinates":[118.31203,24.430413]},"properties":{"cartodb_id":307,"name":"金門縣立體育館\n","description":false,"tel":"(082)372361\n","surface":"硬地[hard]","city":"金門縣[Kinmen County]","type":"公共設施[Public]","charge":"","number_of_courts":2,"address":"金門縣金城鎮民族路261號\n","light":null}},{"type":"Feature","geometry":{"type":"Point","coordinates":[120.56408,22.411849]},"properties":{"cartodb_id":282,"name":"佳冬高農網球場","description":false,"tel":"(08)8662726\n","surface":"硬地[hard]","city":"屏東縣[Pintung County]","type":"高中或國中小[School]","charge":"","number_of_courts":2,"address":"屏東縣佳冬鄉佳冬村佳農路67號\n","light":null}},{"type":"Feature","geometry":{"type":"Point","coordinates":[121.250101,24.987198]},"properties":{"cartodb_id":220,"name":"中壢市中山公園網球場\n","description":false,"tel":"03-4271801轉4113\n","surface":"硬地[hard]","city":"桃園市[Taoyuan City]","type":"公共設施[Public]","charge":"","number_of_courts":2,"address":"桃園市中壢區吉林北路5號\n","light":null}},{"type":"Feature","geometry":{"type":"Point","coordinates":[121.773038,25.150294]},"properties":{"cartodb_id":223,"name":"臺灣海洋大學祥豐網排球場\n","description":false,"tel":"(02)24622192分機2214\n","surface":"硬地[hard]","city":"基隆市[Keelung City]","type":"大專院校[University]","charge":"","number_of_courts":2,"address":"基隆市中正區北寧路2號\n","light":null}},{"type":"Feature","geometry":{"type":"Point","coordinates":[120.445586,23.711668]},"properties":{"cartodb_id":160,"name":"大成商工網球場\n","description":false,"tel":"(05)6322534\n","surface":"硬地[hard]","city":"雲林縣[Yunlin County]","type":"高中或國中小[School]","charge":"","number_of_courts":2,"address":"雲林縣虎尾鎮成平街21號\n","light":null}},{"type":"Feature","geometry":{"type":"Point","coordinates":[120.344667,23.553014]},"properties":{"cartodb_id":248,"name":"新港鄉新港公園\n","description":false,"tel":"05-3742104\n","surface":"硬地[hard]","city":"嘉義縣[Chiayi County]","type":"公共設施[Public]","charge":"","number_of_courts":2,"address":"嘉義縣新港鄉中山路155號\n","light":null}},{"type":"Feature","geometry":{"type":"Point","coordinates":[120.522297,23.880673]},"properties":{"cartodb_id":148,"name":"北斗家商網球場","description":false,"tel":"","surface":"硬地[hard]","city":"彰化縣[Changhua County]","type":"高中或國中小[School]","charge":"","number_of_courts":2,"address":"彰化縣北斗鎮大道里學府路50號\n","light":null}},{"type":"Feature","geometry":{"type":"Point","coordinates":[120.489939,24.152353]},"properties":{"cartodb_id":170,"name":"伸港鄉中興運動公園\n","description":false,"tel":"04-7982010*154\n","surface":"硬地[hard]","city":"彰化縣[Changhua County]","type":"公共設施[Public]","charge":"","number_of_courts":2,"address":"彰化縣伸港鄉大同村中興路一段600號\n","light":null}},{"type":"Feature","geometry":{"type":"Point","coordinates":[120.585935,23.890215]},"properties":{"cartodb_id":171,"name":"社頭鄉運動公園網球場\n","description":false,"tel":"04-8732621\n","surface":"硬地[hard]","city":"彰化縣[Changhua County]","type":"公共設施[Public]","charge":"","number_of_courts":2,"address":"彰化縣社頭鄉中山路1段172號\n","light":null}},{"type":"Feature","geometry":{"type":"Point","coordinates":[121.537211,25.043229]},"properties":{"cartodb_id":290,"name":"臺北科技大學東校區運動園區\n","description":false,"tel":"(02)27712171/0928-665-666\n","surface":"硬地[hard]","city":"台北市[Taipei City]","type":"大專院校[University]","charge":"","number_of_courts":2,"address":"臺北市大安區忠孝東路三段1號\n","light":null}},{"type":"Feature","geometry":{"type":"Point","coordinates":[121.513574,25.119761]},"properties":{"cartodb_id":241,"name":"陽明大學山下球場\n","description":false,"tel":"(02)28267000#2209\n","surface":"硬地[hard]","city":"台北市[Taipei City]","type":"大專院校[University]","charge":"","number_of_courts":2,"address":"臺北市北投區立農街二段155號\n","light":null}},{"type":"Feature","geometry":{"type":"Point","coordinates":[120.230193,22.92278]},"properties":{"cartodb_id":316,"name":"嘉南藥理大學網球場\n","description":false,"tel":"(06)2664911\n","surface":"硬地[hard]","city":"台南市[Tainan City]","type":"大專院校[University]","charge":"","number_of_courts":2,"address":"臺南市仁德區二仁路一段60號\n","light":null}},{"type":"Feature","geometry":{"type":"Point","coordinates":[120.157546,23.060146]},"properties":{"cartodb_id":174,"name":"康寧大學網球場\n","description":false,"tel":"(06)2552500\n","surface":"硬地[hard]","city":"台南市[Tainan City]","type":"大專院校[University]","charge":"","number_of_courts":2,"address":"臺南市安南區安中路五段188號\n","light":null}},{"type":"Feature","geometry":{"type":"Point","coordinates":[120.75257,23.749525]},"properties":{"cartodb_id":382,"name":"鹿谷國小網球場\n","description":false,"tel":"(04)92752048\n","surface":"硬地[hard]","city":"南投縣[Nantou County]","type":"高中或國中小[School]","charge":"","number_of_courts":2,"address":"","light":null}},{"type":"Feature","geometry":{"type":"Point","coordinates":[120.734929,24.172011]},"properties":{"cartodb_id":383,"name":"中臺科技大學網球場\n","description":false,"tel":"(04)22391647#6102\n","surface":"硬地[hard]","city":"台中市[Taichung City]","type":"大專院校[University]","charge":"","number_of_courts":2,"address":"","light":null}},{"type":"Feature","geometry":{"type":"Point","coordinates":[121.449901,25.008148]},"properties":{"cartodb_id":389,"name":"國立台灣藝術大學網球場","description":false,"tel":"(02)22722181#2471\n","surface":"硬地[hard]","city":"新北市[New Taipei City]","type":"大專院校[University]","charge":"","number_of_courts":2,"address":"","light":null}},{"type":"Feature","geometry":{"type":"Point","coordinates":[120.608532,23.851533]},"properties":{"cartodb_id":394,"name":"達德商工網球場\n","description":false,"tel":"(04)8753929\n","surface":"硬地[hard]","city":"彰化縣[Changhua County]","type":"高中或國中小[School]","charge":"","number_of_courts":2,"address":"","light":null}},{"type":"Feature","geometry":{"type":"Point","coordinates":[120.536177,23.718443]},"properties":{"cartodb_id":387,"name":"斗六棒球場旁網球場\n","description":false,"tel":"05-5511171\n","surface":"硬地[hard]","city":"雲林縣[Yunlin County]","type":"公共設施[Public]","charge":"","number_of_courts":2,"address":"","light":null}},{"type":"Feature","geometry":{"type":"Point","coordinates":[121.105393,24.704964]},"properties":{"cartodb_id":437,"name":"田寮國小綜合球場\n","description":false,"tel":"(03)5934164\n","surface":"硬地[hard]","city":"新竹縣[Hsinchu County]","type":"高中或國中小[School]","charge":"","number_of_courts":2,"address":"","light":null}},{"type":"Feature","geometry":{"type":"Point","coordinates":[120.374866,23.188422]},"properties":{"cartodb_id":428,"name":"臺南藝術大學網球場\n","description":false,"tel":"(06)6930100-2812\n","surface":"硬地[hard]","city":"台南市[Tainan City]","type":"大專院校[University]","charge":"","number_of_courts":2,"address":"","light":null}},{"type":"Feature","geometry":{"type":"Point","coordinates":[120.296648,23.066624]},"properties":{"cartodb_id":445,"name":"遠東科技大學網球場\n","description":false,"tel":"(06)5979566#7131\n","surface":"硬地[hard]","city":"台南市[Tainan City]","type":"大專院校[University]","charge":"","number_of_courts":2,"address":"","light":null}},{"type":"Feature","geometry":{"type":"Point","coordinates":[120.551723,24.072898]},"properties":{"cartodb_id":447,"name":"彰化高商網球場\n","description":false,"tel":"(04)7262965\n","surface":"硬地[hard]","city":"彰化縣[Changhua County]","type":"高中或國中小[School]","charge":"","number_of_courts":2,"address":"","light":null}},{"type":"Feature","geometry":{"type":"Point","coordinates":[120.187082,22.93708]},"properties":{"cartodb_id":439,"name":"南寧高中網球場\n","description":false,"tel":"(06)2622458\n","surface":"硬地[hard]","city":"台南市[Tainan City]","type":"高中或國中小[School]","charge":"","number_of_courts":2,"address":"","light":null}},{"type":"Feature","geometry":{"type":"Point","coordinates":[120.350547,22.649611]},"properties":{"cartodb_id":402,"name":"正修科技大學網球場(紅土)","description":false,"tel":"(07)7358800\n","surface":"紅土[clay]","city":"高雄市[Kaohsiung City]","type":"大專院校[University]","charge":"","number_of_courts":2,"address":"","light":null}},{"type":"Feature","geometry":{"type":"Point","coordinates":[120.293701,22.622605]},"properties":{"cartodb_id":410,"name":"高雄女中網球場\n","description":false,"tel":"(07)2115418#407\n","surface":"紅土[clay]","city":"高雄市[Kaohsiung City]","type":"高中或國中小[School]","charge":"","number_of_courts":2,"address":"","light":null}},{"type":"Feature","geometry":{"type":"Point","coordinates":[120.681513,24.491972]},"properties":{"cartodb_id":288,"name":"通霄國中網球場","description":false,"tel":"","surface":"硬地[hard]","city":"苗栗縣[Miaoli County]","type":"高中或國中小[School]","charge":"","number_of_courts":2,"address":"","light":null}},{"type":"Feature","geometry":{"type":"Point","coordinates":[120.476986,22.888126]},"properties":{"cartodb_id":13,"name":"旗山區鼓山公園網球場\n","description":false,"tel":"07-6626635\n","surface":"紅土[clay]","city":"高雄市[Kaohsiung City]","type":"公共設施[Public]","charge":"","number_of_courts":2,"address":"高雄市旗山區中正路","light":null}},{"type":"Feature","geometry":{"type":"Point","coordinates":[120.31598,22.680929]},"properties":{"cartodb_id":20,"name":"高雄市立新莊高中網球場","description":false,"tel":"(07)3420103\n","surface":"紅土[clay]","city":"高雄市[Kaohsiung City]","type":"高中或國中小[School]","charge":"","number_of_courts":2,"address":"高雄市左營區文慈路99號","light":null}},{"type":"Feature","geometry":{"type":"Point","coordinates":[120.91284,24.67505]},"properties":{"cartodb_id":61,"name":"新興國小網球場","description":false,"tel":"(037)663855","surface":"硬地[hard]","city":"苗栗縣[Miaoli County]","type":"高中或國中小[School]","charge":"","number_of_courts":2,"address":"苗栗縣頭份市下興里水源路157號","light":null}},{"type":"Feature","geometry":{"type":"Point","coordinates":[120.869584,24.6849]},"properties":{"cartodb_id":72,"name":"博愛公園網球場","description":false,"tel":"037-625648","surface":"硬地[hard]","city":"苗栗縣[Miaoli County]","type":"公共設施[Public]","charge":"","number_of_courts":2,"address":"苗栗縣竹南鎮文昌街47號","light":null}},{"type":"Feature","geometry":{"type":"Point","coordinates":[120.347755,22.616415]},"properties":{"cartodb_id":79,"name":"五甲國宅社區附屬網球場","description":false,"tel":"07-3373544","surface":"紅土[clay]","city":"高雄市[Kaohsiung City]","type":"公共設施[Public]","charge":"","number_of_courts":2,"address":"高雄市鳳山區國隆路6號","light":null}},{"type":"Feature","geometry":{"type":"Point","coordinates":[120.223493,22.97044]},"properties":{"cartodb_id":91,"name":"崇明國中運動場\n","description":false,"tel":"(06)2907261*129\n","surface":"硬地[hard]","city":"台南市[Tainan City]","type":"高中或國中小[School]","charge":"","number_of_courts":2,"address":"臺南市東區崇明路700號","light":null}},{"type":"Feature","geometry":{"type":"Point","coordinates":[120.519397,23.424957]},"properties":{"cartodb_id":94,"name":"中埔國中網球場\n","description":false,"tel":"(05)2531002\n","surface":"硬地[hard]","city":"嘉義縣[Chiayi County]","type":"高中或國中小[School]","charge":"","number_of_courts":2,"address":"嘉義縣中埔鄉中埔村177號","light":null}},{"type":"Feature","geometry":{"type":"Point","coordinates":[121.536424,25.005421]},"properties":{"cartodb_id":108,"name":"臺北市萬福國小綜合球場\n","description":false,"tel":"(02)29353123\n","surface":"硬地[hard]","city":"台北市[Taipei City]","type":"高中或國中小[School]","charge":"","number_of_courts":2,"address":"臺北市文山區羅斯福5段170巷32號","light":null}},{"type":"Feature","geometry":{"type":"Point","coordinates":[120.300862,23.128402]},"properties":{"cartodb_id":407,"name":"善化高中網球場\n","description":false,"tel":"(06)5837312\n","surface":"紅土[clay]","city":"台南市[Tainan City]","type":"高中或國中小[School]","charge":"","number_of_courts":2,"address":"","light":null}},{"type":"Feature","geometry":{"type":"Point","coordinates":[120.484075,23.963171]},"properties":{"cartodb_id":159,"name":"湖東國小網球場\n","description":false,"tel":"(04)8852062\n","surface":"硬地[hard]","city":"彰化縣[Changhua County]","type":"高中或國中小[School]","charge":"","number_of_courts":2,"address":"","light":null}},{"type":"Feature","geometry":{"type":"Point","coordinates":[121.319519,23.34445]},"properties":{"cartodb_id":137,"name":"玉里高中紅土網球場(館)\n","description":false,"tel":"(03)8886171\n","surface":"紅土[clay]","city":"花蓮縣[Hualien County]","type":"高中或國中小[School]","charge":"","number_of_courts":2,"address":"花蓮縣玉里鎮中華路424號\n","light":null}},{"type":"Feature","geometry":{"type":"Point","coordinates":[118.315139,24.434896]},"properties":{"cartodb_id":257,"name":"金門高中網球場\n","description":false,"tel":"(082)325450轉232\n","surface":"硬地[hard]","city":"金門縣[Kinmen County]","type":"高中或國中小[School]","charge":"","number_of_courts":2,"address":"金門縣金城鎮光前路94號\n","light":null}},{"type":"Feature","geometry":{"type":"Point","coordinates":[120.487484,22.68587]},"properties":{"cartodb_id":295,"name":"屏東高中網球場\n","description":false,"tel":"(08)7656444*350\n","surface":"紅土[clay]","city":"屏東市[Pinting City]","type":"高中或國中小[School]","charge":"","number_of_courts":2,"address":"屏東縣屏東市忠孝路231號\n","light":null}},{"type":"Feature","geometry":{"type":"Point","coordinates":[120.252788,23.463416]},"properties":{"cartodb_id":156,"name":"東石高中網球場\n","description":false,"tel":"(05)3794180\n","surface":"紅土[clay]","city":"嘉義縣[Chiayi County]","type":"高中或國中小[School]","charge":"","number_of_courts":2,"address":"嘉義縣朴子市大鄉里253號\n","light":null}},{"type":"Feature","geometry":{"type":"Point","coordinates":[120.585042,23.901464]},"properties":{"cartodb_id":123,"name":"社頭國中網球場(館)\n","description":false,"tel":"(04)8732047\n","surface":"硬地[hard]","city":"彰化縣[Changhua County]","type":"高中或國中小[School]","charge":"","number_of_courts":2,"address":"彰化縣社頭鄉廣興村中興路1號\n","light":null}},{"type":"Feature","geometry":{"type":"Point","coordinates":[120.548963,24.092767]},"properties":{"cartodb_id":144,"name":"彰泰國中網球場\n","description":false,"tel":"(04)7369676\n","surface":"硬地[hard]","city":"彰化縣[Changhua County]","type":"高中或國中小[School]","charge":"","number_of_courts":2,"address":"彰化縣彰化市自強路357號\n","light":null}},{"type":"Feature","geometry":{"type":"Point","coordinates":[121.505735,25.138221]},"properties":{"cartodb_id":118,"name":"逸仙國小網球場\n","description":false,"tel":"(02)28914537＃25\n","surface":"硬地[hard]","city":"台北市[Taipei City]","type":"高中或國中小[School]","charge":"","number_of_courts":2,"address":"臺北市北投區中心里新民路2號\n","light":null}},{"type":"Feature","geometry":{"type":"Point","coordinates":[120.20998,23.123008]},"properties":{"cartodb_id":161,"name":"港東國小網球場\n","description":false,"tel":"(06)7952231\n","surface":"硬地[hard]","city":"台南市[Tainan City]","type":"高中或國中小[School]","charge":"","number_of_courts":2,"address":"臺南市西港區港東里雙張廍1之1號\n","light":null}},{"type":"Feature","geometry":{"type":"Point","coordinates":[120.30272,23.032411]},"properties":{"cartodb_id":131,"name":"正新國小網球場(館)\n","description":false,"tel":"(06)5973113\n","surface":"紅土[clay]","city":"台南市[Tainan City]","type":"高中或國中小[School]","charge":"","number_of_courts":2,"address":"臺南市新化區豐榮里正新路97號\n","light":null}},{"type":"Feature","geometry":{"type":"Point","coordinates":[120.359296,23.354918]},"properties":{"cartodb_id":153,"name":"後壁國中紅土軟網球場\n","description":false,"tel":"(06)6871974\n","surface":"紅土[clay]","city":"台南市[Tainan City]","type":"高中或國中小[School]","charge":"","number_of_courts":2,"address":"臺南市後壁區嘉苳里124之20號\n","light":null}},{"type":"Feature","geometry":{"type":"Point","coordinates":[120.31514,22.679609]},"properties":{"cartodb_id":190,"name":"福山國中網球場","description":false,"tel":"","surface":"硬地[hard]","city":"高雄市[Kaohsiung City]","type":"高中或國中小[School]","charge":"","number_of_courts":2,"address":"","light":null}},{"type":"Feature","geometry":{"type":"Point","coordinates":[120.179121,22.987388]},"properties":{"cartodb_id":371,"name":"慈濟高中網球場\n","description":false,"tel":"(06)2932323\n","surface":"硬地[hard]","city":"台南市[Tainan City]","type":"高中或國中小[School]","charge":"","number_of_courts":2,"address":"","light":null}},{"type":"Feature","geometry":{"type":"Point","coordinates":[121.305014,24.959139]},"properties":{"cartodb_id":361,"name":"大成國中網球場\n","description":false,"tel":"(03)3625633\n","surface":"硬地[hard]","city":"桃園市[Taoyuan City]","type":"高中或國中小[School]","charge":"","number_of_courts":2,"address":"","light":null}},{"type":"Feature","geometry":{"type":"Point","coordinates":[121.077452,24.765776]},"properties":{"cartodb_id":414,"name":"陸豐國小網球場\n","description":false,"tel":"(03)5923697\n","surface":"硬地[hard]","city":"新竹縣[Hsinchu County]","type":"高中或國中小[School]","charge":"","number_of_courts":2,"address":"","light":null}},{"type":"Feature","geometry":{"type":"Point","coordinates":[120.511348,22.495362]},"properties":{"cartodb_id":368,"name":"溪北國小網球場\n","description":false,"tel":"(08)8642081\n","surface":"硬地[hard]","city":"屏東縣[Pintung County]","type":"高中或國中小[School]","charge":"","number_of_courts":2,"address":"","light":null}},{"type":"Feature","geometry":{"type":"Point","coordinates":[121.587359,23.972293]},"properties":{"cartodb_id":319,"name":"宜昌國中網球場","description":false,"tel":"(03)8520803-205\n","surface":"硬地[hard]","city":"花蓮縣[Hualien County]","type":"高中或國中小[School]","charge":"","number_of_courts":2,"address":"","light":null}},{"type":"Feature","geometry":{"type":"Point","coordinates":[121.577268,23.935572]},"properties":{"cartodb_id":411,"name":"光華國小網球場\n","description":false,"tel":"(03)8421611\n","surface":"硬地[hard]","city":"花蓮縣[Hualien County]","type":"高中或國中小[School]","charge":"","number_of_courts":2,"address":"","light":null}},{"type":"Feature","geometry":{"type":"Point","coordinates":[120.672036,23.927817]},"properties":{"cartodb_id":381,"name":"新豐國小網球場\n","description":false,"tel":"(049)2251804\n","surface":"硬地[hard]","city":"南投縣[Nantou County]","type":"高中或國中小[School]","charge":"","number_of_courts":2,"address":"","light":null}},{"type":"Feature","geometry":{"type":"Point","coordinates":[120.298067,22.626947]},"properties":{"cartodb_id":273,"name":"大同國小網球場","description":false,"tel":"(07)2823039\n","surface":"紅土[clay]","city":"高雄市[Kaohsiung City]","type":"高中或國中小[School]","charge":"","number_of_courts":2,"address":"","light":null}},{"type":"Feature","geometry":{"type":"Point","coordinates":[120.356432,22.722428]},"properties":{"cartodb_id":317,"name":"觀音國小網球場\n","description":false,"tel":"(07)3534710\n","surface":"紅土[clay]","city":"高雄市[Kaohsiung City]","type":"高中或國中小[School]","charge":"","number_of_courts":2,"address":"","light":null}},{"type":"Feature","geometry":{"type":"Point","coordinates":[121.210822,24.963098]},"properties":{"cartodb_id":380,"name":"中央大學附屬中壢高中網球場\n","description":false,"tel":"(03)4932181*34\n","surface":"硬地[hard]","city":"桃園市[Taoyuan City]","type":"高中或國中小[School]","charge":"","number_of_courts":2,"address":"","light":null}},{"type":"Feature","geometry":{"type":"Point","coordinates":[120.937875,23.900228]},"properties":{"cartodb_id":416,"name":"魚池國小網球場\n","description":false,"tel":"(049)2895537\n","surface":"硬地[hard]","city":"南投縣[Nantou County]","type":"高中或國中小[School]","charge":"","number_of_courts":2,"address":"","light":null}},{"type":"Feature","geometry":{"type":"Point","coordinates":[121.498268,25.071399]},"properties":{"cartodb_id":360,"name":"光榮國中網球場","description":false,"tel":"04 2483 1428","surface":"硬地[hard]","city":"台中市[Taichung City]","type":"高中或國中小[School]","charge":"","number_of_courts":2,"address":"","light":null}},{"type":"Feature","geometry":{"type":"Point","coordinates":[120.632364,24.157186]},"properties":{"cartodb_id":110,"name":"黎明國小綜合球場\n","description":false,"tel":"(04)22517363\n","surface":"硬地[hard]","city":"台中市[Taichung City]","type":"高中或國中小[School]","charge":"","number_of_courts":2,"address":"臺中市南屯區黎明路二段555號","light":null}},{"type":"Feature","geometry":{"type":"Point","coordinates":[120.648797,24.331532]},"properties":{"cartodb_id":117,"name":"外埔國中網球場","description":false,"tel":"(04)26833721\n","surface":"硬地[hard]","city":"台中市[Taichung City]","type":"高中或國中小[School]","charge":"","number_of_courts":2,"address":"臺中市外埔區大同里甲后路505號","light":null}},{"type":"Feature","geometry":{"type":"Point","coordinates":[120.253781,23.750949]},"properties":{"cartodb_id":392,"name":"麥寮國小網球場(館)\n","description":false,"tel":"(05)6932266\n","surface":"硬地[hard]","city":"雲林縣[Yunlin County]","type":"高中或國中小[School]","charge":"","number_of_courts":2,"address":"","light":null}},{"type":"Feature","geometry":{"type":"Point","coordinates":[120.687188,24.151267]},"properties":{"cartodb_id":184,"name":"台中一中網球場","description":false,"tel":"","surface":"硬地[hard]","city":"台中市[Taichung City]","type":"高中或國中小[School]","charge":"","number_of_courts":3,"address":"","light":null}},{"type":"Feature","geometry":{"type":"Point","coordinates":[120.558426,24.082667]},"properties":{"cartodb_id":289,"name":"彰化師範大學網球館","description":false,"tel":"","surface":"硬地[hard]","city":"彰化縣[Changhua County]","type":"大專院校[University]","charge":"","number_of_courts":null,"address":"","light":null}},{"type":"Feature","geometry":{"type":"Point","coordinates":[121.531518,25.074788]},"properties":{"cartodb_id":201,"name":"大佳河濱公園網球場","description":false,"tel":"02-25702330#6504\n","surface":"硬地[hard]","city":"台北市[Taipei City]","type":"公共設施[Public]","charge":"","number_of_courts":3,"address":"","light":null}},{"type":"Feature","geometry":{"type":"Point","coordinates":[120.648835,24.180173]},"properties":{"cartodb_id":32,"name":"逢甲大學網球場","description":false,"tel":"04-24517250","surface":"硬地[hard]","city":"台中市[Taichung City]","type":"大專院校[University]","charge":"","number_of_courts":3,"address":"台中市西屯區文華路100號","light":null}},{"type":"Feature","geometry":{"type":"Point","coordinates":[118.322086,24.446522]},"properties":{"cartodb_id":126,"name":"金門大學網球場(館)\n","description":false,"tel":"(08)2313300\n","surface":"硬地[hard]","city":"金門縣[Kinmen County]","type":"大專院校[University]","charge":"","number_of_courts":3,"address":"金門縣金寧鄉大學路1號\n","light":null}},{"type":"Feature","geometry":{"type":"Point","coordinates":[120.600404,22.3639]},"properties":{"cartodb_id":261,"name":"僑德國小網球場\n","description":false,"tel":"(08)8782096\n","surface":"紅土[clay]","city":"屏東縣[Pintung County]","type":"高中或國中小[School]","charge":"","number_of_courts":2,"address":"屏東縣枋寮鄉隆山村僑德路186號\n","light":null}},{"type":"Feature","geometry":{"type":"Point","coordinates":[120.936575,24.687857]},"properties":{"cartodb_id":287,"name":"興華高中網球場\n","description":false,"tel":"(037)663403#141、137\n","surface":"硬地[hard]","city":"苗栗縣[Miaoli County]","type":"高中或國中小[School]","charge":"","number_of_courts":2,"address":"苗栗縣頭份鎮中正一路401號\n","light":null}},{"type":"Feature","geometry":{"type":"Point","coordinates":[120.883759,24.680121]},"properties":{"cartodb_id":217,"name":"永貞國小網球場\n","description":false,"tel":"(03)7623290\n","surface":"硬地[hard]","city":"苗栗縣[Miaoli County]","type":"高中或國中小[School]","charge":"","number_of_courts":2,"address":"苗栗縣頭份鎮田寮里永貞路一段335號\n","light":null}},{"type":"Feature","geometry":{"type":"Point","coordinates":[120.289712,22.796276]},"properties":{"cartodb_id":245,"name":"岡山高中室外網球場\n","description":false,"tel":"(07)6212033#320\n","surface":"紅土[clay]","city":"高雄市[Kaohsiung City]","type":"高中或國中小[School]","charge":"","number_of_courts":2,"address":"高雄市岡山區公園路52號\n","light":null}},{"type":"Feature","geometry":{"type":"Point","coordinates":[120.327503,22.734289]},"properties":{"cartodb_id":298,"name":"楠梓國中網球場\n","description":false,"tel":"(07)3517191\n","surface":"紅土[clay]","city":"高雄市[Kaohsiung City]","type":"高中或國中小[School]","charge":"","number_of_courts":2,"address":"高雄市楠梓區楠梓路336號\n","light":null}},{"type":"Feature","geometry":{"type":"Point","coordinates":[120.497189,23.756915]},"properties":{"cartodb_id":221,"name":"莿桐國小網球場\n","description":false,"tel":"(05)5842065\n","surface":"硬地[hard]","city":"雲林縣[Yunlin County]","type":"高中或國中小[School]","charge":"","number_of_courts":2,"address":"雲林縣莿桐鄉莿桐村中正路147號\n","light":null}},{"type":"Feature","geometry":{"type":"Point","coordinates":[121.345225,24.95085]},"properties":{"cartodb_id":267,"name":"鶯歌國小網球場\n","description":false,"tel":"(02)26792038\n","surface":"硬地[hard]","city":"新北市[New Taipei City]","type":"高中或國中小[School]","charge":"","number_of_courts":2,"address":"新北市鶯歌區同慶里尖山埔路106號\n","light":null}},{"type":"Feature","geometry":{"type":"Point","coordinates":[121.000146,24.84224]},"properties":{"cartodb_id":263,"name":"竹北國中體育館\n","description":false,"tel":"(03)5552064\n","surface":"硬地[hard]","city":"新竹縣[Hsinchu County]","type":"高中或國中小[School]","charge":"","number_of_courts":2,"address":"新竹縣竹北市中正西路154號\n","light":null}},{"type":"Feature","geometry":{"type":"Point","coordinates":[121.03477,24.904384]},"properties":{"cartodb_id":216,"name":"新湖國中網球場(館)\n","description":false,"tel":"(03)5992159\n","surface":"硬地[hard]","city":"新竹縣[Hsinchu County]","type":"高中或國中小[School]","charge":"","number_of_courts":2,"address":"新竹縣湖口鄉新湖路200號\n","light":null}},{"type":"Feature","geometry":{"type":"Point","coordinates":[120.47344,23.566101]},"properties":{"cartodb_id":274,"name":"國立中正大學體育館","description":false,"tel":"(05)2720411\n","surface":"硬地[hard]","city":"嘉義縣[Chiayi County]","type":"大專院校[University]","charge":"","number_of_courts":null,"address":"嘉義縣民雄鄉三興村7鄰大學路一段168號\n","light":null}},{"type":"Feature","geometry":{"type":"Point","coordinates":[120.544428,24.02599]},"properties":{"cartodb_id":196,"name":"花壇國小網球場\n","description":false,"tel":"(04)7862029\n","surface":"硬地[hard]","city":"彰化縣[Changhua County]","type":"高中或國中小[School]","charge":"","number_of_courts":2,"address":"彰化縣花壇鄉長沙村學前路108號\n","light":null}},{"type":"Feature","geometry":{"type":"Point","coordinates":[120.68711,24.125894]},"properties":{"cartodb_id":124,"name":"東峰國中網球場(館)\n","description":false,"tel":"(04)22825133\n","surface":"硬地[hard]","city":"台中市[Taichung City]","type":"高中或國中小[School]","charge":"","number_of_courts":2,"address":"臺中市東區仁和路330號\n","light":null}},{"type":"Feature","geometry":{"type":"Point","coordinates":[120.994583,24.787295]},"properties":{"cartodb_id":52,"name":"交通大學西區網球場","description":false,"tel":"","surface":"硬地[hard]","city":"新竹市[Hsinchu City]","type":"大專院校[University]","charge":"0","number_of_courts":3,"address":"新竹市東區大學路1001號","light":null}},{"type":"Feature","geometry":{"type":"Point","coordinates":[120.505074,24.110119]},"properties":{"cartodb_id":86,"name":"和東國小北側網球場","description":false,"tel":"(04)7552724","surface":"硬地[hard]","city":"彰化縣[Changhua County]","type":"高中或國中小[School]","charge":"","number_of_courts":3,"address":"彰化縣和美鎮和東里彰美路五段210號","light":null}},{"type":"Feature","geometry":{"type":"Point","coordinates":[120.701972,24.209089]},"properties":{"cartodb_id":78,"name":"潭子運動公園附屬網球場","description":false,"tel":"04-22289111#55127","surface":"硬地[hard]","city":"台中市[Taichung City]","type":"公共設施[Public]","charge":"","number_of_courts":3,"address":"臺中市潭子區勝利路100號","light":true}},{"type":"Feature","geometry":{"type":"Point","coordinates":[121.510507,25.073995]},"properties":{"cartodb_id":103,"name":"大同區迪化污水處理廠附設休閒運動公園","description":false,"tel":"02-25973183*863\n","surface":"硬地[hard]","city":"台北市[Taipei City]","type":"公共設施[Public]","charge":"","number_of_courts":3,"address":"臺北市大同區酒泉街235號","light":null}},{"type":"Feature","geometry":{"type":"Point","coordinates":[120.695726,23.982082]},"properties":{"cartodb_id":400,"name":"南開科技大學網球場\n","description":false,"tel":"(049)2563489#1555\n","surface":"硬地[hard]","city":"南投縣[Nantou County]","type":"大專院校[University]","charge":"","number_of_courts":3,"address":"","light":null}},{"type":"Feature","geometry":{"type":"Point","coordinates":[120.980158,24.811417]},"properties":{"cartodb_id":56,"name":"三民網球場","description":false,"tel":"","surface":"硬地[hard]","city":"新竹市[Hsinchu City]","type":"","charge":"","number_of_courts":3,"address":"","light":null}},{"type":"Feature","geometry":{"type":"Point","coordinates":[120.453793,23.608902]},"properties":{"cartodb_id":376,"name":"大林國中網球場\n","description":false,"tel":"(05)2652014\n","surface":"紅土[clay]","city":"嘉義縣[Chiayi County]","type":"高中或國中小[School]","charge":"","number_of_courts":3,"address":"","light":null}},{"type":"Feature","geometry":{"type":"Point","coordinates":[120.407136,23.774948]},"properties":{"cartodb_id":347,"name":"二崙鄉運動公園","description":false,"tel":"05-5982001轉103\n","surface":"紅土[clay]","city":"雲林縣[Yunlin County]","type":"公共設施[Public]","charge":"","number_of_courts":3,"address":"","light":null}},{"type":"Feature","geometry":{"type":"Point","coordinates":[120.609663,24.137138]},"properties":{"cartodb_id":182,"name":"嶺東科技大學網球場\n","description":false,"tel":"(04)23892088\n","surface":"硬地[hard]","city":"台中市[Taichung City]","type":"大專院校[University]","charge":"","number_of_courts":3,"address":"","light":null}},{"type":"Feature","geometry":{"type":"Point","coordinates":[120.304759,23.576705]},"properties":{"cartodb_id":236,"name":"北港鎮網球場(硬地)\n","description":false,"tel":"(05)7826449\n","surface":"硬地[hard]","city":"雲林縣[Yunlin County]","type":"公共設施[Public]","charge":"","number_of_courts":3,"address":"","light":null}},{"type":"Feature","geometry":{"type":"Point","coordinates":[121.513797,25.124412]},"properties":{"cartodb_id":242,"name":"陽明大學網球場\n","description":false,"tel":"(02)28267000#2209\n","surface":"硬地[hard]","city":"台北市[Taipei City]","type":"大專院校[University]","charge":"","number_of_courts":3,"address":"","light":null}},{"type":"Feature","geometry":{"type":"Point","coordinates":[121.487592,24.992194]},"properties":{"cartodb_id":342,"name":"中和區錦和運動公園網球場\n","description":false,"tel":"(02)2248-2688轉411\n","surface":"硬地[hard]","city":"新北市[New Taipei City]","type":"公共設施[Public]","charge":"","number_of_courts":3,"address":"","light":null}},{"type":"Feature","geometry":{"type":"Point","coordinates":[120.725654,24.118993]},"properties":{"cartodb_id":100,"name":"太平區網球場","description":false,"tel":"04-22794157#143\n","surface":"硬地[hard]","city":"台中市[Taichung City]","type":"公共設施[Public]","charge":"","number_of_courts":3,"address":"太平區河堤公園內(九二一震災紀念公園旁)","light":null}},{"type":"Feature","geometry":{"type":"Point","coordinates":[120.372549,22.561143]},"properties":{"cartodb_id":395,"name":"高雄餐旅大學網球場\n","description":false,"tel":"(07)8060505\n","surface":"硬地[hard]","city":"高雄市[Kaohsiung City]","type":"大專院校[University]","charge":"","number_of_courts":3,"address":"","light":null}},{"type":"Feature","geometry":{"type":"Point","coordinates":[120.389689,22.602689]},"properties":{"cartodb_id":448,"name":"輔英科技大學網球場\n","description":false,"tel":"(07)7811151-2284\n","surface":"硬地[hard]","city":"高雄市[Kaohsiung City]","type":"大專院校[University]","charge":"","number_of_courts":3,"address":"","light":null}},{"type":"Feature","geometry":{"type":"Point","coordinates":[120.54796,23.7022]},"properties":{"cartodb_id":386,"name":"雲林國小網球場\n","description":false,"tel":"(05)5361112-712\n","surface":"硬地[hard]","city":"雲林縣[Yunlin County]","type":"高中或國中小[School]","charge":"","number_of_courts":3,"address":"","light":null}},{"type":"Feature","geometry":{"type":"Point","coordinates":[120.487222,23.605348]},"properties":{"cartodb_id":354,"name":"三和國小網球場\n","description":false,"tel":"(05)2952145\n","surface":"硬地[hard]","city":"嘉義縣[Chiayi County]","type":"高中或國中小[School]","charge":"","number_of_courts":3,"address":"","light":null}},{"type":"Feature","geometry":{"type":"Point","coordinates":[121.542429,25.014582]},"properties":{"cartodb_id":39,"name":"台灣科技大學網球場","description":false,"tel":"(02)27376503\n","surface":"硬地[hard]","city":"基隆市[Keelung City]","type":"大專院校[University]","charge":"","number_of_courts":3,"address":"臺北市大安區基隆路四段43號","light":null}},{"type":"Feature","geometry":{"type":"Point","coordinates":[120.980289,24.793078]},"properties":{"cartodb_id":55,"name":"新竹高中網球場","description":false,"tel":"(03)5736666","surface":"硬地[hard]","city":"新竹市[Hsinchu City]","type":"高中或國中小[School]","charge":"","number_of_courts":3,"address":"新竹市東區學府路36號","light":null}},{"type":"Feature","geometry":{"type":"Point","coordinates":[121.519164,25.108384]},"properties":{"cartodb_id":106,"name":"明德國中\n","description":false,"tel":"(02)28232539轉605\n","surface":"硬地[hard]","city":"台北市[Taipei City]","type":"高中或國中小[School]","charge":"","number_of_courts":3,"address":"臺北市北投區建民里明德路50號","light":null}},{"type":"Feature","geometry":{"type":"Point","coordinates":[121.513858,25.105672]},"properties":{"cartodb_id":107,"name":"文林國小網球場\n","description":false,"tel":"(02)28234212\n","surface":"硬地[hard]","city":"台北市[Taipei City]","type":"高中或國中小[School]","charge":"","number_of_courts":3,"address":"臺北市北投區建民里文林北路155號","light":null}},{"type":"Feature","geometry":{"type":"Point","coordinates":[120.308168,22.713203]},"properties":{"cartodb_id":11,"name":"宏南社區網球場","description":false,"tel":"","surface":"紅土[clay]","city":"高雄市[Kaohsiung City]","type":"","charge":"","number_of_courts":3,"address":"高雄市楠梓區宏毅一路6號","light":null}},{"type":"Feature","geometry":{"type":"Point","coordinates":[120.493176,22.88691]},"properties":{"cartodb_id":19,"name":"旗美高中網球場","description":false,"tel":"07-6612502","surface":"紅土[clay]","city":"高雄市[Kaohsiung City]","type":"高中或國中小[School]","charge":"","number_of_courts":3,"address":"高雄市旗山區樹人路21號","light":null}},{"type":"Feature","geometry":{"type":"Point","coordinates":[121.564402,23.99851]},"properties":{"cartodb_id":304,"name":"慈濟科技大學","description":false,"tel":"(03)8572158轉2356\n","surface":"硬地[hard]","city":"花蓮縣[Hualien County]","type":"大專院校[University]","charge":"","number_of_courts":3,"address":"花蓮縣花蓮市建國路二段880號\n","light":null}},{"type":"Feature","geometry":{"type":"Point","coordinates":[120.426579,22.608521]},"properties":{"cartodb_id":143,"name":"和春技術學院網球場","description":false,"tel":"(07)7889888\n","surface":"紅土[clay]","city":"高雄市[Kaohsiung City]","type":"大專院校[University]","charge":"","number_of_courts":3,"address":"高雄市大寮區琉球里至學路288號\n","light":null}},{"type":"Feature","geometry":{"type":"Point","coordinates":[121.741004,25.095318]},"properties":{"cartodb_id":305,"name":"基隆市暖暖運動公園\n","description":false,"tel":"02-24275518#22\n","surface":"硬地[hard]","city":"基隆市[Keelung City]","type":"公共設施[Public]","charge":"","number_of_courts":3,"address":"基隆市暖暖區東碇路15號\n","light":null}},{"type":"Feature","geometry":{"type":"Point","coordinates":[120.304469,23.578541]},"properties":{"cartodb_id":358,"name":"北港高中網球場","description":false,"tel":"(05)7821411-307","surface":"硬地[hard]","city":"雲林縣[Yunlin County]","type":"高中或國中小[School]","charge":"","number_of_courts":3,"address":"雲林縣北港鎮成功路26號\n","light":null}},{"type":"Feature","geometry":{"type":"Point","coordinates":[121.510146,24.951299]},"properties":{"cartodb_id":300,"name":"景文科技大學網球場\n","description":false,"tel":"(02)82122000分機2235\n","surface":"硬地[hard]","city":"新北市[New Taipei City]","type":"大專院校[University]","charge":"","number_of_courts":3,"address":"新北市新店區安忠路99號\n","light":null}},{"type":"Feature","geometry":{"type":"Point","coordinates":[120.606612,23.956499]},"properties":{"cartodb_id":315,"name":"中州科技大學網球場\n","description":false,"tel":"(04)8359000\n","surface":"硬地[hard]","city":"彰化縣[Changhua County]","type":"大專院校[University]","charge":"","number_of_courts":3,"address":"彰化縣員林鎮山腳路三段2巷6號\n","light":null}},{"type":"Feature","geometry":{"type":"Point","coordinates":[120.564313,23.960796]},"properties":{"cartodb_id":224,"name":"員林高中網球場(館)\n","description":false,"tel":"(04)8320364#320\n","surface":"紅土[clay]","city":"彰化縣[Changhua County]","type":"高中或國中小[School]","charge":"","number_of_courts":3,"address":"彰化縣員林鎮靜修路79號\n","light":null}},{"type":"Feature","geometry":{"type":"Point","coordinates":[120.434658,24.06017]},"properties":{"cartodb_id":169,"name":"鹿港鎮運動場","description":false,"tel":"04-7772006*2609\n","surface":"硬地[hard]","city":"彰化縣[Changhua County]","type":"公共設施[Public]","charge":"","number_of_courts":3,"address":"彰化縣鹿港鎮民權路168號\n","light":null}},{"type":"Feature","geometry":{"type":"Point","coordinates":[120.490974,23.852156]},"properties":{"cartodb_id":173,"name":"溪州森林公園網球場\n","description":false,"tel":"(04)8897325\n","surface":"硬地[hard]","city":"彰化縣[Changhua County]","type":"公共設施[Public]","charge":"","number_of_courts":3,"address":"彰化縣溪州溪州村公園路\n","light":null}},{"type":"Feature","geometry":{"type":"Point","coordinates":[120.559984,24.067194]},"properties":{"cartodb_id":281,"name":"彰化師範大學寶山校區","description":false,"tel":"(04)7232105#1942\n","surface":"硬地[hard]","city":"彰化縣[Changhua County]","type":"大專院校[University]","charge":"","number_of_courts":3,"address":"彰化縣彰化市進德路1號\n","light":null}},{"type":"Feature","geometry":{"type":"Point","coordinates":[121.390689,25.035229]},"properties":{"cartodb_id":232,"name":"長庚大學網球場","description":false,"tel":"(03)2118800*2107\n","surface":"硬地[hard]","city":"桃園市[Taoyuan City]","type":"大專院校[University]","charge":"","number_of_courts":4,"address":"","light":null}},{"type":"Feature","geometry":{"type":"Point","coordinates":[120.987091,24.864013]},"properties":{"cartodb_id":374,"name":"明新科技大學網球場\n","description":false,"tel":"(03)5593142#2343\n","surface":"硬地[hard]","city":"新竹縣[Hsinchu County]","type":"大專院校[University]","charge":"","number_of_courts":4,"address":"","light":null}},{"type":"Feature","geometry":{"type":"Point","coordinates":[121.456194,24.969182]},"properties":{"cartodb_id":401,"name":"德霖技術學院網球場\n","description":false,"tel":"(02)22733567轉605\n","surface":"硬地[hard]","city":"新北市[New Taipei City]","type":"","charge":"","number_of_courts":4,"address":"","light":null}},{"type":"Feature","geometry":{"type":"Point","coordinates":[120.745414,22.008335]},"properties":{"cartodb_id":399,"name":"僑勇國小網球場\n","description":false,"tel":"(08)889-2141轉14\n","surface":"硬地[hard]","city":"屏東縣[Pintung County]","type":"高中或國中小[School]","charge":"","number_of_courts":4,"address":"","light":null}},{"type":"Feature","geometry":{"type":"Point","coordinates":[120.567033,24.233723]},"properties":{"cartodb_id":76,"name":"沙鹿區網球場","description":false,"tel":"04-26622101~219","surface":"硬地[hard]","city":"台中市[Taichung City]","type":"公共設施[Public]","charge":"","number_of_courts":4,"address":"臺中市沙鹿區鎮政路8號","light":null}},{"type":"Feature","geometry":{"type":"Point","coordinates":[120.662118,24.143127]},"properties":{"cartodb_id":115,"name":"向上國中網球場\n","description":false,"tel":"(04)23726085\n","surface":"硬地[hard]","city":"台中市[Taichung City]","type":"高中或國中小[School]","charge":"","number_of_courts":3,"address":"臺中市西區美村路一段389號","light":null}},{"type":"Feature","geometry":{"type":"Point","coordinates":[120.536773,23.69064]},"properties":{"cartodb_id":208,"name":"雲林科技大學網球場(紅土)","description":false,"tel":"","surface":"紅土[clay]","city":"雲林縣[Yunlin County]","type":"大專院校[University]","charge":"","number_of_courts":4,"address":"","light":null}},{"type":"Feature","geometry":{"type":"Point","coordinates":[120.484786,23.96421]},"properties":{"cartodb_id":132,"name":"溪湖鎮湖東運動公園網球場\n","description":false,"tel":"04-8852121\n","surface":"紅土[clay]","city":"彰化縣[Changhua County]","type":"公共設施[Public]","charge":"","number_of_courts":4,"address":"","light":null}},{"type":"Feature","geometry":{"type":"Point","coordinates":[121.145057,22.74967]},"properties":{"cartodb_id":355,"name":"臺東縣立體育場網球場\n","description":false,"tel":"089-310194\n","surface":"紅土[clay]","city":"臺東縣[Taitung County]","type":"公共設施[Public]","charge":"","number_of_courts":4,"address":"","light":null}},{"type":"Feature","geometry":{"type":"Point","coordinates":[120.683426,24.151147]},"properties":{"cartodb_id":186,"name":"台中科技大學網球場","description":false,"tel":"","surface":"硬地[hard]","city":"台中市[Taichung City]","type":"大專院校[University]","charge":"","number_of_courts":4,"address":"","light":null}},{"type":"Feature","geometry":{"type":"Point","coordinates":[120.53754,23.69074]},"properties":{"cartodb_id":209,"name":"雲林科技大學網球場(硬地)","description":false,"tel":"","surface":"硬地[hard]","city":"雲林縣[Yunlin County]","type":"大專院校[University]","charge":"","number_of_courts":4,"address":"","light":null}},{"type":"Feature","geometry":{"type":"Point","coordinates":[120.671722,24.143675]},"properties":{"cartodb_id":405,"name":"國立台中教育大學","description":false,"tel":"(04)22195678\n","surface":"硬地[hard]","city":"台中市[Taichung City]","type":"大專院校[University]","charge":"","number_of_courts":null,"address":"","light":null}},{"type":"Feature","geometry":{"type":"Point","coordinates":[120.685329,24.143934]},"properties":{"cartodb_id":84,"name":"台中公園網球場","description":false,"tel":"04-25120998","surface":"紅土[clay]","city":"台中市[Taichung City]","type":"公共設施[Public]","charge":"","number_of_courts":4,"address":"臺中市北區公園路及雙十路口","light":null}},{"type":"Feature","geometry":{"type":"Point","coordinates":[121.142391,22.743899]},"properties":{"cartodb_id":83,"name":"東海運動園區","description":false,"tel":"089-310194","surface":"紅土[clay]","city":"臺東縣[Taitung County]","type":"公共設施[Public]","charge":"","number_of_courts":4,"address":"臺東市中華路二段17號","light":null}},{"type":"Feature","geometry":{"type":"Point","coordinates":[121.501645,25.109685]},"properties":{"cartodb_id":104,"name":"北投區回饋設施洲美運動公園\n","description":false,"tel":"02-28360050#131\n","surface":"硬地[hard]","city":"台北市[Taipei City]","type":"公共設施[Public]","charge":"","number_of_courts":4,"address":"臺北市北投區洲美街271號","light":null}},{"type":"Feature","geometry":{"type":"Point","coordinates":[121.319846,23.344369]},"properties":{"cartodb_id":136,"name":"玉里高中硬地網球場(館)\n","description":false,"tel":"(03)8886171\n","surface":"硬地[hard]","city":"花蓮縣[Hualien County]","type":"高中或國中小[School]","charge":"","number_of_courts":4,"address":"花蓮縣玉里鎮中華路424號\n","light":null}},{"type":"Feature","geometry":{"type":"Point","coordinates":[120.93548,23.895159]},"properties":{"cartodb_id":199,"name":"魚池鄉網球場\n","description":false,"tel":"049-2895371\n","surface":"硬地[hard]","city":"南投縣[Nantou County]","type":"公共設施[Public]","charge":"","number_of_courts":4,"address":"南投縣魚池鄉秀水巷33號\n","light":null}},{"type":"Feature","geometry":{"type":"Point","coordinates":[120.613647,22.644997]},"properties":{"cartodb_id":272,"name":"屏東科技大學網球場(硬地)","description":false,"tel":"(08)7703202#6481\n","surface":"硬地[hard]","city":"屏東縣[Pintung County]","type":"大專院校[University]","charge":"","number_of_courts":4,"address":"屏東縣內埔鄉學府路1號\n","light":null}},{"type":"Feature","geometry":{"type":"Point","coordinates":[120.613618,22.645341]},"properties":{"cartodb_id":271,"name":"屏東科技大學網球場(紅土)\n","description":false,"tel":"(08)7703202#6481\n","surface":"紅土[clay]","city":"屏東縣[Pintung County]","type":"大專院校[University]","charge":"","number_of_courts":4,"address":"屏東縣內埔鄉學府路1號\n","light":null}},{"type":"Feature","geometry":{"type":"Point","coordinates":[120.908916,24.693462]},"properties":{"cartodb_id":215,"name":"頭份鎮忠孝公園網球場\n","description":false,"tel":"037-663038#129\n","surface":"硬地[hard]","city":"苗栗縣[Miaoli County]","type":"公共設施[Public]","charge":"","number_of_courts":4,"address":"苗栗縣頭份鎮忠孝二路111號\n","light":null}},{"type":"Feature","geometry":{"type":"Point","coordinates":[121.241992,24.960727]},"properties":{"cartodb_id":243,"name":"中原大學體育園區\n","description":false,"tel":"(03)2651621\n","surface":"硬地[hard]","city":"桃園市[Taoyuan City]","type":"大專院校[University]","charge":"","number_of_courts":4,"address":"桃園市中壢區中北路200號\n","light":null}},{"type":"Feature","geometry":{"type":"Point","coordinates":[121.102005,24.973967]},"properties":{"cartodb_id":256,"name":"新屋國小網球場","description":false,"tel":"(03)4772016\n","surface":"硬地[hard]","city":"桃園市[Taoyuan City]","type":"高中或國中小[School]","charge":"","number_of_courts":4,"address":"桃園市新屋區新生村中正路196號\n","light":null}},{"type":"Feature","geometry":{"type":"Point","coordinates":[121.381151,25.033143]},"properties":{"cartodb_id":231,"name":"體育大學網球場(室外)\n","description":false,"tel":"(03)3283201#3138\n","surface":"硬地[hard]","city":"桃園市[Taoyuan City]","type":"大專院校[University]","charge":"","number_of_courts":4,"address":"桃園市龜山區文化一路250號\n","light":null}},{"type":"Feature","geometry":{"type":"Point","coordinates":[121.521564,24.994749]},"properties":{"cartodb_id":278,"name":"秀山國小網球場","description":false,"tel":"(02)29434353\n","surface":"硬地[hard]","city":"新北市[New Taipei City]","type":"高中或國中小[School]","charge":"","number_of_courts":4,"address":"新北市中和區立人街2號\n","light":null}},{"type":"Feature","geometry":{"type":"Point","coordinates":[120.952853,24.760216]},"properties":{"cartodb_id":277,"name":"中華大學網球場","description":false,"tel":"(035)374281\n","surface":"硬地[hard]","city":"新竹市[Hsinchu City]","type":"大專院校[University]","charge":"","number_of_courts":4,"address":"新竹市香山區東香里五福路二段707號\n","light":null}},{"type":"Feature","geometry":{"type":"Point","coordinates":[120.24626,23.458709]},"properties":{"cartodb_id":293,"name":"嘉義縣立網球場\n","description":false,"tel":"(05)3708100\n","surface":"硬地[hard]","city":"嘉義縣[Chiayi County]","type":"公共設施[Public]","charge":"","number_of_courts":4,"address":"嘉義縣朴子市四維路一段460-1號\n","light":null}},{"type":"Feature","geometry":{"type":"Point","coordinates":[120.557914,24.064723]},"properties":{"cartodb_id":259,"name":"健興網球場\n","description":false,"tel":"04-7112175\n","surface":"硬地[hard]","city":"彰化縣[Changhua County]","type":"其他[other]","charge":"","number_of_courts":4,"address":"彰化市寶山路122號\n","light":null}},{"type":"Feature","geometry":{"type":"Point","coordinates":[120.378246,23.901991]},"properties":{"cartodb_id":249,"name":"二林工商網球場\n","description":false,"tel":"(04)8962132*323\n","surface":"硬地[hard]","city":"彰化縣[Changhua County]","type":"高中或國中小[School]","charge":"","number_of_courts":4,"address":"彰化縣二林鎮豐田里斗苑路四段500號\n","light":null}},{"type":"Feature","geometry":{"type":"Point","coordinates":[120.58712,23.898269]},"properties":{"cartodb_id":188,"name":"社頭國小網球場\n","description":false,"tel":"(04)8732039\n","surface":"硬地[hard]","city":"彰化縣[Changhua County]","type":"高中或國中小[School]","charge":"","number_of_courts":3,"address":"彰化縣社頭鄉社頭村社斗路一段258號\n","light":null}},{"type":"Feature","geometry":{"type":"Point","coordinates":[120.689227,24.152495]},"properties":{"cartodb_id":183,"name":"臺灣體育運動大學網球場\n","description":false,"tel":"(04)22213108 分機1106\n","surface":"硬地[hard]","city":"台中市[Taichung City]","type":"大專院校[University]","charge":"","number_of_courts":4,"address":"臺中市北區雙十路一段16號\n","light":null}},{"type":"Feature","geometry":{"type":"Point","coordinates":[121.146482,22.745604]},"properties":{"cartodb_id":158,"name":"台東高中網球場","description":false,"tel":"(08)9322070\n","surface":"硬地[hard]","city":"臺東縣[Taitung County]","type":"高中或國中小[School]","charge":"","number_of_courts":4,"address":"臺東縣臺東市中華路一段721號\n","light":null}},{"type":"Feature","geometry":{"type":"Point","coordinates":[120.258933,22.967101]},"properties":{"cartodb_id":163,"name":"仁德運動公園","description":false,"tel":"06-279-6071\n","surface":"硬地[hard]","city":"台南市[Tainan City]","type":"公共設施[Public]","charge":"","number_of_courts":4,"address":"臺南市仁德區仁義路130號\n","light":null}},{"type":"Feature","geometry":{"type":"Point","coordinates":[120.926691,23.947452]},"properties":{"cartodb_id":379,"name":"暨南國際大學戶外球場\n","description":false,"tel":"(049)2910960 #3751\n","surface":"硬地[hard]","city":"南投縣[Nantou County]","type":"大專院校[University]","charge":"","number_of_courts":4,"address":"","light":null}},{"type":"Feature","geometry":{"type":"Point","coordinates":[121.474797,25.136647]},"properties":{"cartodb_id":391,"name":"臺北藝術大學網球場\n","description":false,"tel":"(02)28961000#5663\n","surface":"硬地[hard]","city":"台北市[Taipei City]","type":"大專院校[University]","charge":"","number_of_courts":4,"address":"","light":null}},{"type":"Feature","geometry":{"type":"Point","coordinates":[121.172826,24.792545]},"properties":{"cartodb_id":443,"name":"關西鎮中正網球場\n","description":false,"tel":"03-587-3180#111\n","surface":"硬地[hard]","city":"新竹縣[Hsinchu County]","type":"","charge":"","number_of_courts":4,"address":"","light":null}},{"type":"Feature","geometry":{"type":"Point","coordinates":[121.053385,24.889429]},"properties":{"cartodb_id":435,"name":"湖口高中網球場\n","description":false,"tel":"03-5690772#501\n","surface":"硬地[hard]","city":"新竹縣[Hsinchu County]","type":"高中或國中小[School]","charge":"","number_of_courts":4,"address":"","light":null}},{"type":"Feature","geometry":{"type":"Point","coordinates":[120.328423,22.627722]},"properties":{"cartodb_id":130,"name":"苓雅區(14號公園)福德網球場(館)\n","description":false,"tel":"07-7658220\n","surface":"紅土[clay]","city":"高雄市[Kaohsiung City]","type":"公共設施[Public]","charge":"","number_of_courts":4,"address":"","light":null}},{"type":"Feature","geometry":{"type":"Point","coordinates":[120.427918,23.543319]},"properties":{"cartodb_id":344,"name":"國立嘉義大學民雄校區","description":false,"tel":"05 226 3411","surface":"硬地[hard]","city":"嘉義市[Chiayi City]","type":"大專院校[University]","charge":"","number_of_courts":4,"address":"","light":null}},{"type":"Feature","geometry":{"type":"Point","coordinates":[120.983975,24.795632]},"properties":{"cartodb_id":167,"name":"新竹高商網球場","description":false,"tel":"(03)5722150\n","surface":"硬地[hard]","city":"新竹市[Hsinchu City]","type":"高中或國中小[School]","charge":"","number_of_courts":4,"address":"","light":null}},{"type":"Feature","geometry":{"type":"Point","coordinates":[120.463757,23.477317]},"properties":{"cartodb_id":446,"name":"嘉義高中網球場\n","description":false,"tel":"(05)2762804\n","surface":"紅土[clay]","city":"嘉義市[Chiayi City]","type":"高中或國中小[School]","charge":"","number_of_courts":4,"address":"","light":null}},{"type":"Feature","geometry":{"type":"Point","coordinates":[120.356369,22.564547]},"properties":{"cartodb_id":357,"name":"小港高中網球場\n","description":false,"tel":"(07)8062627*206\n","surface":"硬地[hard]","city":"高雄市[Kaohsiung City]","type":"高中或國中小[School]","charge":"","number_of_courts":4,"address":"","light":null}},{"type":"Feature","geometry":{"type":"Point","coordinates":[121.500686,25.072125]},"properties":{"cartodb_id":359,"name":"光榮國小網球場\n","description":false,"tel":"(02)29730392\n","surface":"硬地[hard]","city":"新北市[New Taipei City]","type":"高中或國中小[School]","charge":"","number_of_courts":4,"address":"","light":null}},{"type":"Feature","geometry":{"type":"Point","coordinates":[120.309579,22.647215]},"properties":{"cartodb_id":14,"name":"高雄醫學大學網球場","description":false,"tel":"(07)3121101轉2118-100\n","surface":"紅土[clay]","city":"高雄市[Kaohsiung City]","type":"大專院校[University]","charge":"","number_of_courts":4,"address":"高雄市三民區十全一路100號","light":null}},{"type":"Feature","geometry":{"type":"Point","coordinates":[120.690157,24.180968]},"properties":{"cartodb_id":111,"name":"松竹國小網球場\n","description":false,"tel":"(04)22447043\n","surface":"硬地[hard]","city":"台中市[Taichung City]","type":"高中或國中小[School]","charge":"","number_of_courts":4,"address":"臺中市北屯區昌平路二段12號","light":null}},{"type":"Feature","geometry":{"type":"Point","coordinates":[120.679788,23.909809]},"properties":{"cartodb_id":409,"name":"南投高中網球場\n","description":false,"tel":"(04)92231175\n","surface":"硬地[hard]","city":"南投縣[Nantou County]","type":"高中或國中小[School]","charge":"","number_of_courts":4,"address":"","light":null}},{"type":"Feature","geometry":{"type":"Point","coordinates":[121.476173,25.014013]},"properties":{"cartodb_id":49,"name":"板橋民生公園網球場","description":false,"tel":"","surface":"草地[grass]","city":"新北市[New Taipei City]","type":"公共設施[Public]","charge":"","number_of_courts":5,"address":"","light":null}},{"type":"Feature","geometry":{"type":"Point","coordinates":[120.295489,22.781872]},"properties":{"cartodb_id":329,"name":"劉厝公園網球場","description":false,"tel":"","surface":"紅土[clay]","city":"高雄市[Kaohsiung City]","type":"公共設施[Public]","charge":"","number_of_courts":5,"address":"","light":null}},{"type":"Feature","geometry":{"type":"Point","coordinates":[120.304636,23.576223]},"properties":{"cartodb_id":237,"name":"北港鎮網球場(紅土)\n","description":false,"tel":"(05)7826449\n","surface":"紅土[clay]","city":"雲林縣[Yunlin County]","type":"公共設施[Public]","charge":"","number_of_courts":5,"address":"","light":null}},{"type":"Feature","geometry":{"type":"Point","coordinates":[120.535163,22.636291]},"properties":{"cartodb_id":346,"name":"屏東縣立運動公園\n","description":false,"tel":"08-7362589-15\n","surface":"硬地[hard]","city":"屏東縣[Pintung County]","type":"公共設施[Public]","charge":"","number_of_courts":5,"address":"","light":null}},{"type":"Feature","geometry":{"type":"Point","coordinates":[121.094838,24.734992]},"properties":{"cartodb_id":378,"name":"竹東鎮立網球場\n","description":false,"tel":"03-596-6177 # 560\n","surface":"硬地[hard]","city":"新竹縣[Hsinchu County]","type":"","charge":"","number_of_courts":5,"address":"","light":null}},{"type":"Feature","geometry":{"type":"Point","coordinates":[121.232564,24.950998]},"properties":{"cartodb_id":262,"name":"信義國小\n","description":false,"tel":"(03)4573780\n","surface":"硬地[hard]","city":"桃園市[Taoyuan City]","type":"高中或國中小[School]","charge":"","number_of_courts":5,"address":"","light":null}},{"type":"Feature","geometry":{"type":"Point","coordinates":[120.675315,24.118547]},"properties":{"cartodb_id":229,"name":"中興大學網球場","description":false,"tel":"","surface":"硬地[hard]","city":"台中市[Taichung City]","type":"大專院校[University]","charge":"","number_of_courts":6,"address":"","light":null}},{"type":"Feature","geometry":{"type":"Point","coordinates":[121.535885,25.113609]},"properties":{"cartodb_id":203,"name":"臺北市天母棒球場網球設施\n","description":false,"tel":"02-25702330#6534\n","surface":"硬地[hard]","city":"台北市[Taipei City]","type":"公共設施[Public]","charge":"","number_of_courts":6,"address":"","light":null}},{"type":"Feature","geometry":{"type":"Point","coordinates":[120.26374,22.623479]},"properties":{"cartodb_id":226,"name":"中山大學網球場\n","description":false,"tel":"(07)5252000-2801\n","surface":"草地[grass]","city":"高雄市[Kaohsiung City]","type":"大專院校[University]","charge":"","number_of_courts":6,"address":"","light":null}},{"type":"Feature","geometry":{"type":"Point","coordinates":[120.371715,22.764281]},"properties":{"cartodb_id":327,"name":"樹德科技大學北校區(硬地)\n","description":false,"tel":"(07)6158000*2855\n","surface":"硬地[hard]","city":"高雄市[Kaohsiung City]","type":"大專院校[University]","charge":"","number_of_courts":6,"address":"","light":null}},{"type":"Feature","geometry":{"type":"Point","coordinates":[120.729032,24.143238]},"properties":{"cartodb_id":420,"name":"勤益科技大學網球場\n","description":false,"tel":"(04)23924505分機5602\n","surface":"硬地[hard]","city":"台中市[Taichung City]","type":"大專院校[University]","charge":"","number_of_courts":6,"address":"","light":null}},{"type":"Feature","geometry":{"type":"Point","coordinates":[121.450501,25.040394]},"properties":{"cartodb_id":364,"name":"新莊網球場\n","description":false,"tel":"02-29981382\n","surface":"硬地[hard]","city":"新北市[New Taipei City]","type":"","charge":"","number_of_courts":6,"address":"","light":null}},{"type":"Feature","geometry":{"type":"Point","coordinates":[120.278023,22.731263]},"properties":{"cartodb_id":149,"name":"高雄大學網球場\n","description":false,"tel":"(07)5919490\n","surface":"硬地[hard]","city":"高雄市[Kaohsiung City]","type":"大專院校[University]","charge":"","number_of_courts":6,"address":"","light":null}},{"type":"Feature","geometry":{"type":"Point","coordinates":[121.534967,25.018894]},"properties":{"cartodb_id":41,"name":"台灣大學網球場-硬地","description":false,"tel":"02-33663366","surface":"硬地[hard]","city":"台北市[Taipei City]","type":"大專院校[University]","charge":"","number_of_courts":6,"address":"台北市大安區羅斯福路四段1號","light":null}},{"type":"Feature","geometry":{"type":"Point","coordinates":[120.96929,24.681978]},"properties":{"cartodb_id":266,"name":"亞太創意技術學院運動中心\n","description":false,"tel":"(037)605560\n","surface":"硬地[hard]","city":"苗栗縣[Miaoli County]","type":"高中或國中小[School]","charge":"","number_of_courts":4,"address":"苗栗縣頭份鎮學府路110號\n","light":null}},{"type":"Feature","geometry":{"type":"Point","coordinates":[121.189794,24.969559]},"properties":{"cartodb_id":150,"name":"中央大學網球場\n","description":false,"tel":"(03)4227151\n","surface":"硬地[hard]","city":"桃園市[Taoyuan City]","type":"大專院校[University]","charge":"","number_of_courts":7,"address":"桃園市中壢區中大路300號\n","light":null}},{"type":"Feature","geometry":{"type":"Point","coordinates":[121.723921,25.127598]},"properties":{"cartodb_id":297,"name":"基隆市立網球場\n","description":false,"tel":"02-24275518#19\n","surface":"硬地[hard]","city":"基隆市[Keelung City]","type":"公共設施[Public]","charge":"","number_of_courts":5,"address":"基隆市安樂區安和一街137巷8號\n","light":null}},{"type":"Feature","geometry":{"type":"Point","coordinates":[120.550369,23.712601]},"properties":{"cartodb_id":260,"name":"斗六市立網球場\n","description":false,"tel":"05-5332000\n","surface":"硬地[hard]","city":"雲林縣[Yunlin County]","type":"公共設施[Public]","charge":"","number_of_courts":4,"address":"雲林縣斗六市鎮東里育英北街60號\n","light":null}},{"type":"Feature","geometry":{"type":"Point","coordinates":[120.989838,24.796326]},"properties":{"cartodb_id":53,"name":"清華大學網球場","description":false,"tel":"(03)5715131\n","surface":"硬地[hard]","city":"新竹市[Hsinchu City]","type":"大專院校[University]","charge":"","number_of_courts":5,"address":"新竹市東區光復路二段101號\n","light":null}},{"type":"Feature","geometry":{"type":"Point","coordinates":[120.490735,23.571953]},"properties":{"cartodb_id":313,"name":"南華大學網球場\n","description":false,"tel":"(05)2721001#2991\n","surface":"硬地[hard]","city":"嘉義縣[Chiayi County]","type":"大專院校[University]","charge":"","number_of_courts":4,"address":"嘉義縣大林鎮南華路一段55號\n","light":null}},{"type":"Feature","geometry":{"type":"Point","coordinates":[120.577341,24.226911]},"properties":{"cartodb_id":239,"name":"靜宜大學網球場\n","description":false,"tel":"(04)26328001轉16320\n","surface":"硬地[hard]","city":"台中市[Taichung City]","type":"大專院校[University]","charge":"","number_of_courts":6,"address":"臺中市沙鹿區臺灣大道7段200號\n","light":null}},{"type":"Feature","geometry":{"type":"Point","coordinates":[121.551323,25.051019]},"properties":{"cartodb_id":204,"name":"松山區網球場(館)\n","description":false,"tel":"02-25702330\n","surface":"硬地[hard]","city":"台北市[Taipei City]","type":"公共設施[Public]","charge":"","number_of_courts":6,"address":"臺北市松山區南京東路4段6號\n","light":null}},{"type":"Feature","geometry":{"type":"Point","coordinates":[121.426754,24.982423]},"properties":{"cartodb_id":177,"name":"水源景觀運動公園","description":false,"tel":"","surface":"紅土[clay]","city":"新北市[New Taipei City]","type":"公共設施[Public]","charge":"","number_of_courts":8,"address":"","light":null}},{"type":"Feature","geometry":{"type":"Point","coordinates":[120.492184,22.676481]},"properties":{"cartodb_id":338,"name":"屏東縣立體育場網球場","description":false,"tel":"08-7362589-15\n","surface":"紅土[clay]","city":"屏東市[Pinting City]","type":"公共設施[Public]","charge":"","number_of_courts":8,"address":"","light":null}},{"type":"Feature","geometry":{"type":"Point","coordinates":[120.211185,22.978585]},"properties":{"cartodb_id":345,"name":"臺南市立網球場\n","description":false,"tel":"06-2157691\n","surface":"紅土[clay]","city":"台南市[Tainan City]","type":"公共設施[Public]","charge":"","number_of_courts":8,"address":"","light":null}},{"type":"Feature","geometry":{"type":"Point","coordinates":[120.306296,22.756307]},"properties":{"cartodb_id":31,"name":"竹林公園網球場","description":false,"tel":"07-6119599\n","surface":"硬地[hard]","city":"高雄市[Kaohsiung City]","type":"公共設施[Public]","charge":"","number_of_courts":8,"address":"高雄市橋頭區隆豐路11號","light":null}},{"type":"Feature","geometry":{"type":"Point","coordinates":[121.575517,24.985474]},"properties":{"cartodb_id":43,"name":"政治大學網球場","description":false,"tel":"(02)29393091分機62964\n","surface":"硬地[hard]","city":"台北市[Taipei City]","type":"大專院校[University]","charge":"","number_of_courts":6,"address":"臺北市文山區指南路二段64號","light":null}},{"type":"Feature","geometry":{"type":"Point","coordinates":[120.676326,24.174972]},"properties":{"cartodb_id":57,"name":"蓬勃台中運動中心","description":false,"tel":"04-25120998\n","surface":"紅土[clay]","city":"台中市[Taichung City]","type":"","charge":"","number_of_courts":8,"address":"臺中市北屯區山西路二段231號","light":null}},{"type":"Feature","geometry":{"type":"Point","coordinates":[120.460217,23.803791]},"properties":{"cartodb_id":74,"name":"西螺大橋公園","description":false,"tel":"05-5863203分機506","surface":"硬地[hard]","city":"雲林縣[Yunlin County]","type":"公共設施[Public]","charge":"","number_of_courts":6,"address":"西螺鎮修文路100巷6號","light":null}},{"type":"Feature","geometry":{"type":"Point","coordinates":[120.603589,24.180383]},"properties":{"cartodb_id":85,"name":"東海大學網球場","description":false,"tel":"(04)23590222","surface":"硬地[hard]","city":"台中市[Taichung City]","type":"大專院校[University]","charge":"","number_of_courts":8,"address":"臺中市西屯區臺灣大道四段1727號","light":null}},{"type":"Feature","geometry":{"type":"Point","coordinates":[121.6209,23.990607]},"properties":{"cartodb_id":363,"name":"花蓮縣立網球場\n","description":false,"tel":"03-8580686\n","surface":"硬地[hard]","city":"花蓮縣[Hualien County]","type":"","charge":"","number_of_courts":10,"address":"","light":null}},{"type":"Feature","geometry":{"type":"Point","coordinates":[121.545578,25.084758]},"properties":{"cartodb_id":291,"name":"實踐大學網球場","description":false,"tel":"(02)25381111分機3811\n","surface":"硬地[hard]","city":"台北市[Taipei City]","type":"大專院校[University]","charge":"08:00~18:00，400元/場/1小時\n18:00~21:00，700元/場/1小時","number_of_courts":null,"address":"","light":null}},{"type":"Feature","geometry":{"type":"Point","coordinates":[120.337986,22.644711]},"properties":{"cartodb_id":6,"name":"陽明網球場","description":false,"tel":"07-7229449轉657\n","surface":"硬地[hard]","city":"高雄市[Kaohsiung City]","type":"公共設施[Public]","charge":"","number_of_courts":12,"address":"高雄市三民區澄和路269號","light":true}},{"type":"Feature","geometry":{"type":"Point","coordinates":[120.888255,24.689131]},"properties":{"cartodb_id":75,"name":"竹南運動公園網球場","description":false,"tel":"037-625648","surface":"硬地[hard]","city":"苗栗縣[Miaoli County]","type":"公共設施[Public]","charge":"","number_of_courts":10,"address":"苗栗縣竹南鎮公園路55號","light":null}},{"type":"Feature","geometry":{"type":"Point","coordinates":[120.317801,22.669181]},"properties":{"cartodb_id":197,"name":"文藻外語大學-育美體育館\n","description":false,"tel":"(07)3426031*7602\n","surface":"硬地[hard]","city":"高雄市[Kaohsiung City]","type":"大專院校[University]","charge":"","number_of_courts":null,"address":"","light":null}},{"type":"Feature","geometry":{"type":"Point","coordinates":[121.434599,25.176791]},"properties":{"cartodb_id":369,"name":"真理大學室內網球館","description":false,"tel":"(02)26212121轉1714\n","surface":"硬地[hard]","city":"新北市[New Taipei City]","type":"大專院校[University]","charge":"","number_of_courts":null,"address":"","light":null}},{"type":"Feature","geometry":{"type":"Point","coordinates":[121.261039,25.018447]},"properties":{"cartodb_id":77,"name":"停四公園網球場","description":false,"tel":"(03)352-0000 分機133","surface":"硬地[hard]","city":"桃園市[Taoyuan City]","type":"公共設施[Public]","charge":"","number_of_courts":1,"address":"桃園市蘆竹區興仁路與大興八街口","light":null}},{"type":"Feature","geometry":{"type":"Point","coordinates":[120.65906,24.134306]},"properties":{"cartodb_id":114,"name":"大勇國小網球場\n","description":false,"tel":"(04)23755959\n","surface":"硬地[hard]","city":"台中市[Taichung City]","type":"高中或國中小[School]","charge":"","number_of_courts":1,"address":"臺中市西區忠明南路515號","light":null}},{"type":"Feature","geometry":{"type":"Point","coordinates":[120.6754,24.143539]},"properties":{"cartodb_id":404,"name":"日日新大戲院附近球場","description":false,"tel":"","surface":"硬地[hard]","city":"台中市[Taichung City]","type":"","charge":"","number_of_courts":1,"address":"","light":null}},{"type":"Feature","geometry":{"type":"Point","coordinates":[121.088398,24.730919]},"properties":{"cartodb_id":353,"name":"竹東高中網球'場","description":false,"tel":"03 596 2024","surface":"硬地[hard]","city":"新竹縣[Hsinchu County]","type":"高中或國中小[School]","charge":"","number_of_courts":1,"address":"","light":null}},{"type":"Feature","geometry":{"type":"Point","coordinates":[120.565982,23.987967]},"properties":{"cartodb_id":88,"name":"大村國中網球場","description":false,"tel":"(04)8521231\n","surface":"硬地[hard]","city":"彰化縣[Changhua County]","type":"高中或國中小[School]","charge":"","number_of_courts":1,"address":"","light":null}},{"type":"Feature","geometry":{"type":"Point","coordinates":[120.546254,23.713394]},"properties":{"cartodb_id":372,"name":"斗六高中網球場(紅土)","description":false,"tel":"(05)5322039\n","surface":"紅土[clay]","city":"雲林縣[Yunlin County]","type":"高中或國中小[School]","charge":"","number_of_courts":1,"address":"","light":null}},{"type":"Feature","geometry":{"type":"Point","coordinates":[120.660667,24.14267]},"properties":{"cartodb_id":116,"name":"硬地球場一面","description":false,"tel":"","surface":"硬地[hard]","city":"台中市[Taichung City]","type":"其他[other]","charge":"","number_of_courts":1,"address":"","light":null}},{"type":"Feature","geometry":{"type":"Point","coordinates":[120.386024,22.347002]},"properties":{"cartodb_id":168,"name":"琉球鄉漁福運動公園\n","description":false,"tel":"08-8612501#123\n","surface":"硬地[hard]","city":"屏東縣[Pintung County]","type":"公共設施[Public]","charge":"","number_of_courts":1,"address":"","light":null}},{"type":"Feature","geometry":{"type":"Point","coordinates":[120.496599,22.675924]},"properties":{"cartodb_id":337,"name":"仁愛國小網球場\n","description":false,"tel":"(08)7361114\n","surface":"紅土[clay]","city":"屏東市[Pinting City]","type":"高中或國中小[School]","charge":"","number_of_courts":1,"address":"","light":null}},{"type":"Feature","geometry":{"type":"Point","coordinates":[121.0047,24.838377]},"properties":{"cartodb_id":365,"name":"義民高中\n","description":false,"tel":"(03)5552020\n","surface":"硬地[hard]","city":"新竹縣[Hsinchu County]","type":"高中或國中小[School]","charge":"","number_of_courts":1,"address":"","light":null}},{"type":"Feature","geometry":{"type":"Point","coordinates":[120.350753,22.650549]},"properties":{"cartodb_id":403,"name":"正修科技大學網球場\n","description":false,"tel":"(07)7358800\n","surface":"硬地[hard]","city":"高雄市[Kaohsiung City]","type":"大專院校[University]","charge":"","number_of_courts":1,"address":"","light":null}},{"type":"Feature","geometry":{"type":"Point","coordinates":[121.318299,23.343687]},"properties":{"cartodb_id":135,"name":"林管處球場","description":false,"tel":"","surface":"硬地[hard]","city":"花蓮縣[Hualien County]","type":"其他[other]","charge":"","number_of_courts":2,"address":"","light":null}},{"type":"Feature","geometry":{"type":"Point","coordinates":[120.666637,23.998267]},"properties":{"cartodb_id":325,"name":"草屯商工網球場\n","description":false,"tel":"(04)92362082\n","surface":"硬地[hard]","city":"南投縣[Nantou County]","type":"高中或國中小[School]","charge":"","number_of_courts":2,"address":"","light":null}},{"type":"Feature","geometry":{"type":"Point","coordinates":[121.560806,25.061739]},"properties":{"cartodb_id":48,"name":"民權國小網球場","description":false,"tel":"02-27652327","surface":"硬地[hard]","city":"台北市[Taipei City]","type":"高中或國中小[School]","charge":"","number_of_courts":2,"address":"台北市松山區民權東路四段200號","light":null}},{"type":"Feature","geometry":{"type":"Point","coordinates":[121.767426,24.670511]},"properties":{"cartodb_id":306,"name":"宜蘭縣羅東鎮體育館\n","description":false,"tel":"(03)954-5102#221\n","surface":"硬地[hard]","city":"宜蘭縣[Yilan County]","type":"公共設施[Public]","charge":"","number_of_courts":7,"address":"宜蘭縣羅東鎮體育路15號\n","light":null}},{"type":"Feature","geometry":{"type":"Point","coordinates":[120.34861,23.560289]},"properties":{"cartodb_id":134,"name":"新港藝術高中室外球場\n","description":false,"tel":"(05)3747060#254\n","surface":"硬地[hard]","city":"嘉義縣[Chiayi County]","type":"高中或國中小[School]","charge":"","number_of_courts":2,"address":"嘉義縣新港鄉宮後村藝高路1號\n","light":null}},{"type":"Feature","geometry":{"type":"Point","coordinates":[120.547147,24.070207]},"properties":{"cartodb_id":195,"name":"南郭國小網球場\n","description":false,"tel":"(04)7280366\n","surface":"硬地[hard]","city":"彰化縣[Changhua County]","type":"高中或國中小[School]","charge":"","number_of_courts":null,"address":"彰化縣彰化市中興路98號\n","light":null}},{"type":"Feature","geometry":{"type":"Point","coordinates":[120.647939,24.197671]},"properties":{"cartodb_id":127,"name":"泰安國小網球場\n","description":false,"tel":"(04)27017045\n","surface":"硬地[hard]","city":"台中市[Taichung City]","type":"高中或國中小[School]","charge":"","number_of_courts":2,"address":"臺中市西屯區廣福路150巷99號\n","light":null}},{"type":"Feature","geometry":{"type":"Point","coordinates":[120.25756,23.007429]},"properties":{"cartodb_id":128,"name":"崑山國小操場\n","description":false,"tel":"(06)2711640\n","surface":"硬地[hard]","city":"台南市[Tainan City]","type":"高中或國中小[School]","charge":"","number_of_courts":1,"address":"臺南市永康區國光五街72號\n","light":null}},{"type":"Feature","geometry":{"type":"Point","coordinates":[120.174964,23.169337]},"properties":{"cartodb_id":133,"name":"佳里區體育公園網球場\n","description":false,"tel":"06-722-2127轉235\n","surface":"紅土[clay]","city":"台南市[Tainan City]","type":"公共設施[Public]","charge":"","number_of_courts":8,"address":"臺南市佳里區六順路1號\n","light":null}},{"type":"Feature","geometry":{"type":"Point","coordinates":[120.7423,24.258184]},"properties":{"cartodb_id":336,"name":"豐原高中網球場\n","description":false,"tel":"(04)25290381轉6277\n","surface":"硬地[hard]","city":"台中市[Taichung City]","type":"高中或國中小[School]","charge":"","number_of_courts":2,"address":"","light":null}},{"type":"Feature","geometry":{"type":"Point","coordinates":[120.625219,24.104992]},"properties":{"cartodb_id":81,"name":"紅土球場2面","description":false,"tel":"","surface":"紅土[clay]","city":"台中市[Taichung City]","type":"其他[other]","charge":"","number_of_courts":2,"address":"","light":null}},{"type":"Feature","geometry":{"type":"Point","coordinates":[121.586734,25.04241]},"properties":{"cartodb_id":47,"name":"玉成公園網球場","description":false,"tel":"","surface":"硬地[hard]","city":"台北市[Taipei City]","type":"公共設施[Public]","charge":"","number_of_courts":2,"address":"","light":null}},{"type":"Feature","geometry":{"type":"Point","coordinates":[120.302318,22.667627]},"properties":{"cartodb_id":417,"name":"三民家商網球場\n","description":false,"tel":"(07)5525887-182\n","surface":"紅土[clay]","city":"高雄市[Kaohsiung City]","type":"","charge":"","number_of_courts":2,"address":"","light":null}},{"type":"Feature","geometry":{"type":"Point","coordinates":[120.371063,22.764028]},"properties":{"cartodb_id":328,"name":"樹德科技大學北校區(紅土)\n","description":false,"tel":"(07)6158000*2855\n","surface":"紅土[clay]","city":"高雄市[Kaohsiung City]","type":"大專院校[University]","charge":"","number_of_courts":2,"address":"","light":null}},{"type":"Feature","geometry":{"type":"Point","coordinates":[121.053865,24.700041]},"properties":{"cartodb_id":390,"name":"北埔國小網球場\n","description":false,"tel":"03-5802215#109\n","surface":"硬地[hard]","city":"新竹縣[Hsinchu County]","type":"高中或國中小[School]","charge":"","number_of_courts":2,"address":"","light":null}},{"type":"Feature","geometry":{"type":"Point","coordinates":[120.928158,24.785549]},"properties":{"cartodb_id":370,"name":"香山高中\n","description":false,"tel":"(03)5384332\n","surface":"硬地[hard]","city":"新竹市[Hsinchu City]","type":"高中或國中小[School]","charge":"","number_of_courts":2,"address":"","light":null}},{"type":"Feature","geometry":{"type":"Point","coordinates":[120.555006,23.740684]},"properties":{"cartodb_id":418,"name":"溪洲國小\n","description":false,"tel":"(05)5512485\n","surface":"硬地[hard]","city":"雲林縣[Yunlin County]","type":"高中或國中小[School]","charge":"","number_of_courts":2,"address":"","light":null}},{"type":"Feature","geometry":{"type":"Point","coordinates":[121.017974,24.69158]},"properties":{"cartodb_id":419,"name":"峨眉國中\n","description":false,"tel":"(03)5800208\n","surface":"硬地[hard]","city":"新竹縣[Hsinchu County]","type":"高中或國中小[School]","charge":"","number_of_courts":2,"address":"","light":null}},{"type":"Feature","geometry":{"type":"Point","coordinates":[120.513309,22.656873]},"properties":{"cartodb_id":350,"name":"國立屏東大學屏商校區網球場(館)\n","description":false,"tel":"(08)7238700\n","surface":"硬地[hard]","city":"屏東市[Pinting City]","type":"大專院校[University]","charge":"","number_of_courts":3,"address":"","light":null}},{"type":"Feature","geometry":{"type":"Point","coordinates":[120.948954,24.796573]},"properties":{"cartodb_id":433,"name":"景觀大道網球場","description":false,"tel":"03-5621138\n","surface":"硬地[hard]","city":"新竹市[Hsinchu City]","type":"","charge":"","number_of_courts":3,"address":"","light":null}},{"type":"Feature","geometry":{"type":"Point","coordinates":[120.958231,24.79888]},"properties":{"cartodb_id":434,"name":"公六網球場\n","description":false,"tel":"03-5621138\n","surface":"硬地[hard]","city":"新竹市[Hsinchu City]","type":"","charge":"","number_of_courts":3,"address":"","light":null}},{"type":"Feature","geometry":{"type":"Point","coordinates":[120.309104,22.643222]},"properties":{"cartodb_id":225,"name":"三民網球場\n","description":false,"tel":"07-3111324\n","surface":"紅土[clay]","city":"高雄市[Kaohsiung City]","type":"公共設施[Public]","charge":"","number_of_courts":3,"address":"","light":null}},{"type":"Feature","geometry":{"type":"Point","coordinates":[120.416478,23.347386]},"properties":{"cartodb_id":155,"name":"白河區康樂路網球場\n","description":false,"tel":"06-6855102 -24\n","surface":"紅土[clay]","city":"台南市[Tainan City]","type":"公共設施[Public]","charge":"","number_of_courts":4,"address":"","light":null}},{"type":"Feature","geometry":{"type":"Point","coordinates":[120.557251,24.064777]},"properties":{"cartodb_id":258,"name":"健興網球場\n","description":false,"tel":"04-7112175\n","surface":"紅土[clay]","city":"彰化縣[Changhua County]","type":"其他[other]","charge":"","number_of_courts":6,"address":"","light":null}},{"type":"Feature","geometry":{"type":"Point","coordinates":[121.589073,23.990649]},"properties":{"cartodb_id":165,"name":"硬地球場六面","description":false,"tel":"","surface":"硬地[hard]","city":"花蓮縣[Hualien County]","type":"其他[other]","charge":"","number_of_courts":6,"address":"","light":null}},{"type":"Feature","geometry":{"type":"Point","coordinates":[121.756529,24.682834]},"properties":{"cartodb_id":429,"name":"羅東運動公園網球場\n","description":false,"tel":"03-9541216\n","surface":"紅土[clay]","city":"宜蘭縣[Yilan County]","type":"公共設施[Public]","charge":"","number_of_courts":8,"address":"","light":null}},{"type":"Feature","geometry":{"type":"Point","coordinates":[120.423106,23.477029]},"properties":{"cartodb_id":323,"name":"嘉義市港坪運動公園網球場","description":false,"tel":"","surface":"硬地[hard]","city":"嘉義市[Chiayi City]","type":"公共設施[Public]","charge":"","number_of_courts":8,"address":"","light":null}},{"type":"Feature","geometry":{"type":"Point","coordinates":[120.684195,24.156994]},"properties":{"cartodb_id":441,"name":"中正公園網球場","description":false,"tel":"","surface":"硬地[hard]","city":"台中市[Taichung City]","type":"公共設施[Public]","charge":"","number_of_courts":8,"address":"","light":null}},{"type":"Feature","geometry":{"type":"Point","coordinates":[120.522887,22.648574]},"properties":{"cartodb_id":255,"name":"麟洛國小網球場\n","description":false,"tel":"(08)7221670#14\n","surface":"硬地[hard]","city":"屏東縣[Pintung County]","type":"高中或國中小[School]","charge":"","number_of_courts":3,"address":"屏東縣麟洛鄉麟趾村中華路86號\n","light":null}},{"type":"Feature","geometry":{"type":"Point","coordinates":[121.215911,24.962434]},"properties":{"cartodb_id":206,"name":"桃園市立網球場","description":false,"tel":"03-3194510#301\n","surface":"硬地[hard]","city":"桃園市[Taoyuan City]","type":"公共設施[Public]\n","charge":"","number_of_courts":8,"address":"桃園市中壢區民權路311-3號\n","light":null}},{"type":"Feature","geometry":{"type":"Point","coordinates":[120.333096,22.639172]},"properties":{"cartodb_id":202,"name":"民族國中綜合式網球場","description":false,"tel":"(07)3818718*20\n","surface":"硬地[hard]","city":"高雄市[Kaohsiung City]","type":"高中或國中小[School]","charge":"","number_of_courts":3,"address":"高雄市三民區覺民路363號\n","light":null}},{"type":"Feature","geometry":{"type":"Point","coordinates":[120.552477,23.714163]},"properties":{"cartodb_id":269,"name":"斗六國中網球場(館)\n","description":false,"tel":"(05)5323296\n","surface":"硬地[hard]","city":"雲林縣[Yunlin County]","type":"高中或國中小[School]","charge":"","number_of_courts":4,"address":"雲林縣斗六市育英北街69號\n","light":null}},{"type":"Feature","geometry":{"type":"Point","coordinates":[121.479282,25.069516]},"properties":{"cartodb_id":284,"name":"三重商工網球場\n","description":false,"tel":"(02)29715606\n","surface":"硬地[hard]","city":"新北市[New Taipei City]","type":"高中或國中小[School]","charge":"","number_of_courts":4,"address":"新北市三重區中正北路163號\n","light":null}},{"type":"Feature","geometry":{"type":"Point","coordinates":[121.420182,25.066948]},"properties":{"cartodb_id":139,"name":"黎明技術學院後山運動場\n","description":false,"tel":"(02)29097811#1251\n","surface":"硬地[hard]","city":"新北市[New Taipei City]","type":"大專院校[University]","charge":"","number_of_courts":2,"address":"新北市泰山區黎專路2之2號\n","light":null}},{"type":"Feature","geometry":{"type":"Point","coordinates":[120.522198,23.869474]},"properties":{"cartodb_id":146,"name":"萬來國小網球場","description":false,"tel":"","surface":"硬地[hard]","city":"彰化縣[Changhua County]","type":"高中或國中小[School]","charge":"","number_of_courts":2,"address":"彰化縣北斗鎮西德里文賢街35號\n","light":null}},{"type":"Feature","geometry":{"type":"Point","coordinates":[120.522916,23.877641]},"properties":{"cartodb_id":147,"name":"北斗鎮網球場\n","description":false,"tel":"04-8884166\n","surface":"硬地[hard]","city":"彰化縣[Changhua County]","type":"公共設施[Public]","charge":"","number_of_courts":3,"address":"彰化縣北斗鎮新政段34地號\n","light":null}},{"type":"Feature","geometry":{"type":"Point","coordinates":[120.479564,23.948891]},"properties":{"cartodb_id":181,"name":"湖南國小網球場\n","description":false,"tel":"(04)8816845\n","surface":"硬地[hard]","city":"彰化縣[Changhua County]","type":"高中或國中小[School]","charge":"","number_of_courts":2,"address":"彰化縣溪湖鎮大竹里彰水路二段725號\n","light":null}},{"type":"Feature","geometry":{"type":"Point","coordinates":[120.551173,24.091288]},"properties":{"cartodb_id":194,"name":"泰和國小網球場\n","description":false,"tel":"(04)7222433\n","surface":"硬地[hard]","city":"彰化縣[Changhua County]","type":"高中或國中小[School]","charge":"","number_of_courts":4,"address":"彰化縣彰化市泰和路二段145巷1號\n","light":null}},{"type":"Feature","geometry":{"type":"Point","coordinates":[120.678509,24.116864]},"properties":{"cartodb_id":228,"name":"大里公五網球場\n","description":false,"tel":"04-25120998\n","surface":"紅土[clay]","city":"台中市[Taichung City]","type":"公共設施[Public]","charge":"","number_of_courts":4,"address":"臺中市大里區 國光路 興大南街 交叉口\n","light":null}},{"type":"Feature","geometry":{"type":"Point","coordinates":[120.674126,24.137412]},"properties":{"cartodb_id":119,"name":"忠孝國小網球場(館)","description":false,"tel":"(04)22242161\n","surface":"硬地[hard]","city":"台中市[Taichung City]","type":"高中或國中小[School]","charge":"","number_of_courts":3,"address":"臺中市西區三民路一段171號\n","light":null}},{"type":"Feature","geometry":{"type":"Point","coordinates":[121.068319,22.733425]},"properties":{"cartodb_id":308,"name":"臺東大學附屬體育高中網球場\n","description":false,"tel":"(089)383629\n","surface":"硬地[hard]","city":"臺東縣[Taitung County]","type":"高中或國中小[School]","charge":"","number_of_courts":3,"address":"臺東縣臺東市中興路五段399號\n","light":null}},{"type":"Feature","geometry":{"type":"Point","coordinates":[120.27213,22.903178]},"properties":{"cartodb_id":121,"name":"長榮大學網球場(館)\n","description":false,"tel":"(06)2785123\n","surface":"硬地[hard]","city":"台南市[Tainan City]","type":"大專院校[University]","charge":"","number_of_courts":6,"address":"臺南市歸仁區長大路1號\n","light":null}},{"type":"Feature","geometry":{"type":"Point","coordinates":[120.324631,22.964061]},"properties":{"cartodb_id":142,"name":"關廟國小網球場\n","description":false,"tel":"(06)5952209\n","surface":"紅土[clay]","city":"台南市[Tainan City]","type":"高中或國中小[School]","charge":"","number_of_courts":2,"address":"臺南市關廟區山西里文衡路121號\n","light":null}},{"type":"Feature","geometry":{"type":"Point","coordinates":[121.75202,24.737024]},"properties":{"cartodb_id":438,"name":"宜蘭運動公園網球場\n","description":false,"tel":"03-9254034\n","surface":"硬地[hard]","city":"宜蘭縣[Yilan County]","type":"公共設施[Public]","charge":"","number_of_courts":12,"address":"","light":null}},{"type":"Feature","geometry":{"type":"Point","coordinates":[120.320412,22.644603]},"properties":{"cartodb_id":21,"name":"高雄市正興國中網球場","description":false,"tel":"07-3809591","surface":"硬地[hard]","city":"高雄市[Kaohsiung City]","type":"高中或國中小[School]","charge":"","number_of_courts":3,"address":"高雄市三民區覺民路850號","light":null}},{"type":"Feature","geometry":{"type":"Point","coordinates":[121.742104,24.752185]},"properties":{"cartodb_id":145,"name":"宜蘭高中網球場\n","description":false,"tel":"03-9324153轉112\n","surface":"硬地[hard]","city":"宜蘭縣[Yilan County]","type":"高中或國中小[School]","charge":"","number_of_courts":3,"address":"宜蘭縣宜蘭市復興路三段8號\n","light":null}},{"type":"Feature","geometry":{"type":"Point","coordinates":[120.317856,22.589506]},"properties":{"cartodb_id":1,"name":"鎮昌國小網球場","description":false,"tel":"07-8116575","surface":"紅土[clay]","city":"高雄市[Kaohsiung City]","type":"高中或國中小[School]","charge":"暫停使用","number_of_courts":1,"address":"高雄市前鎮區樹人路261號","light":false}},{"type":"Feature","geometry":{"type":"Point","coordinates":[121.13749,25.012877]},"properties":{"cartodb_id":34,"name":"新坡國小網球場","description":false,"tel":"03-4981534","surface":"硬地[hard]","city":"桃園市[Taoyuan City]","type":"高中或國中小[School]","charge":"會員制","number_of_courts":4,"address":"桃園市觀音區中山路二段717號","light":null}},{"type":"Feature","geometry":{"type":"Point","coordinates":[120.320284,22.643234]},"properties":{"cartodb_id":22,"name":"民族國小網球場","description":false,"tel":"07-3860526","surface":"硬地[hard]","city":"高雄市[Kaohsiung City]","type":"高中或國中小[School]","charge":"","number_of_courts":3,"address":"高雄市三民區平等路197號","light":null}},{"type":"Feature","geometry":{"type":"Point","coordinates":[120.307803,22.721071]},"properties":{"cartodb_id":3,"name":"楠梓加工出口區網球場","description":false,"tel":"","surface":"紅土[clay]","city":"高雄市[Kaohsiung City]","type":"","charge":"","number_of_courts":3,"address":"高雄市楠梓加工出口區經二路","light":null}},{"type":"Feature","geometry":{"type":"Point","coordinates":[120.318403,22.61261]},"properties":{"cartodb_id":23,"name":"中正高工網球場","description":false,"tel":"07-7232301","surface":"紅土[clay]","city":"高雄市[Kaohsiung City]","type":"高中或國中小[School]","charge":"","number_of_courts":2,"address":"高雄市前鎮區光華二路80號","light":null}},{"type":"Feature","geometry":{"type":"Point","coordinates":[120.316585,22.590165]},"properties":{"cartodb_id":4,"name":"鎮海網球場","description":false,"tel":"07-7658220\n","surface":"紅土[clay]","city":"高雄市[Kaohsiung City]","type":"公共設施[Public]","charge":"會員制，年費NT1200","number_of_courts":2,"address":"高雄市前鎮區鎮海路82巷","light":true}},{"type":"Feature","geometry":{"type":"Point","coordinates":[121.823857,24.864376]},"properties":{"cartodb_id":265,"name":"頭城運動公園網球場\n","description":false,"tel":"(03)977-2371#283\n","surface":"硬地[hard]","city":"宜蘭縣[Yilan County]","type":"公共設施[Public]","charge":"","number_of_courts":4,"address":"宜蘭縣頭城鎮復興路98號\n","light":null}},{"type":"Feature","geometry":{"type":"Point","coordinates":[120.336878,22.562263]},"properties":{"cartodb_id":8,"name":"小港體育場網球場","description":false,"tel":"07-8319085","surface":"紅土[clay]","city":"高雄市[Kaohsiung City]","type":"公共設施[Public]","charge":"","number_of_courts":2,"address":"高雄市小港區平和路2號","light":null}},{"type":"Feature","geometry":{"type":"Point","coordinates":[120.326777,22.581948]},"properties":{"cartodb_id":24,"name":"高雄市立明正國小","description":false,"tel":"07-8110965","surface":"紅土[clay]","city":"高雄市[Kaohsiung City]","type":"高中或國中小[School]","charge":"","number_of_courts":1,"address":"高雄市前鎮區明道路2號","light":null}},{"type":"Feature","geometry":{"type":"Point","coordinates":[120.317821,22.571155]},"properties":{"cartodb_id":9,"name":"高雄區漁業大樓網球場","description":false,"tel":"","surface":"紅土[clay]","city":"高雄市[Kaohsiung City]","type":"","charge":"會員制，年費","number_of_courts":2,"address":"高雄市前鎮區漁港東二路3號","light":null}},{"type":"Feature","geometry":{"type":"Point","coordinates":[121.550072,25.051152]},"properties":{"cartodb_id":35,"name":"台北市立網球場","description":false,"tel":"02-25795349","surface":"硬地[hard]","city":"台北市[Taipei City]","type":"公共設施[Public]","charge":"","number_of_courts":6,"address":"台北市松山區南京東路四段6號","light":null}},{"type":"Feature","geometry":{"type":"Point","coordinates":[120.306129,22.759888]},"properties":{"cartodb_id":26,"name":"橋頭國中網球場","description":false,"tel":"07-6113559","surface":"紅土[clay]","city":"高雄市[Kaohsiung City]","type":"高中或國中小[School]","charge":"","number_of_courts":2,"address":"高雄市橋頭區新興路70號","light":null}},{"type":"Feature","geometry":{"type":"Point","coordinates":[121.512442,25.089126]},"properties":{"cartodb_id":37,"name":"百齡橋堤外公園網球場","description":false,"tel":"","surface":"硬地[hard]","city":"台北市[Taipei City]","type":"公共設施[Public]","charge":"","number_of_courts":7,"address":"台北市百齡左岸河濱公園","light":null}},{"type":"Feature","geometry":{"type":"Point","coordinates":[121.42909,23.668169]},"properties":{"cartodb_id":122,"name":"光復商工網球場\n","description":false,"tel":"(03)8700245\n","surface":"硬地[hard]","city":"花蓮縣[Hualien County]","type":"高中或國中小[School]","charge":"","number_of_courts":2,"address":"花蓮縣光復鄉林森路100號\n","light":null}},{"type":"Feature","geometry":{"type":"Point","coordinates":[120.313704,22.731555]},"properties":{"cartodb_id":30,"name":"都會公園網球場","description":false,"tel":"07-3656103","surface":"硬地[hard]","city":"高雄市[Kaohsiung City]","type":"公共設施[Public]","charge":"","number_of_courts":8,"address":"高雄市楠梓區德民路24號","light":null}},{"type":"Feature","geometry":{"type":"Point","coordinates":[121.218861,24.936853]},"properties":{"cartodb_id":33,"name":"明巧室內網球場","description":false,"tel":" 03-4599369","surface":"硬地[hard]","city":"桃園市[Taoyuan City]","type":"私人場地[private]","charge":"預約制，500","number_of_courts":2,"address":"桃園市平鎮市德育路二段329巷37號","light":null}},{"type":"Feature","geometry":{"type":"Point","coordinates":[120.6717,23.757863]},"properties":{"cartodb_id":62,"name":"竹山鎮網球場","description":false,"tel":"(049)2642175","surface":"硬地[hard]","city":"南投縣[Nantou County]","type":"公共設施[Public]","charge":"","number_of_courts":4,"address":"南投縣竹山鎮公所路100號","light":null}},{"type":"Feature","geometry":{"type":"Point","coordinates":[121.536008,25.018904]},"properties":{"cartodb_id":42,"name":"台灣大學網球場-紅土","description":false,"tel":"02-33663366","surface":"紅土[clay]","city":"台北市[Taipei City]","type":"大專院校[University]","charge":"","number_of_courts":2,"address":"台北市大安區羅斯福路四段1號","light":null}},{"type":"Feature","geometry":{"type":"Point","coordinates":[121.536909,25.008758]},"properties":{"cartodb_id":44,"name":"師大分部網球場-硬地","description":false,"tel":"02-77346666","surface":"硬地[hard]","city":"台北市[Taipei City]","type":"大專院校[University]","charge":"","number_of_courts":4,"address":"台北市文山區汀州路四段88號","light":null}},{"type":"Feature","geometry":{"type":"Point","coordinates":[121.543636,25.015311]},"properties":{"cartodb_id":40,"name":"臺大醫院網球場","description":false,"tel":"","surface":"硬地[hard]","city":"台北市[Taipei City]","type":"其他[other]","charge":"","number_of_courts":1,"address":"台北市中正區中山南路7號","light":null}},{"type":"Feature","geometry":{"type":"Point","coordinates":[120.86375,23.785038]},"properties":{"cartodb_id":230,"name":"永興國小網球場\n","description":false,"tel":"(04)92772545\n","surface":"硬地[hard]","city":"南投縣[Nantou County]","type":"高中或國中小[School]","charge":"","number_of_courts":1,"address":"南投縣水里鄉永興村林朋巷148號\n","light":null}},{"type":"Feature","geometry":{"type":"Point","coordinates":[120.309013,23.041001]},"properties":{"cartodb_id":264,"name":"水里商工網球場\n","description":false,"tel":"(04)92870666-261\n","surface":"硬地[hard]","city":"南投縣[Nantou County]","type":"高中或國中小[School]","charge":"","number_of_courts":2,"address":"南投縣水里鄉南湖路2號\n","light":null}},{"type":"Feature","geometry":{"type":"Point","coordinates":[120.666353,23.728228]},"properties":{"cartodb_id":244,"name":"過溪國小網球場\n","description":false,"tel":"(04)92642573\n","surface":"硬地[hard]","city":"南投縣[Nantou County]","type":"高中或國中小[School]","charge":"","number_of_courts":1,"address":"南投縣竹山鎮福興里鯉南路136號\n","light":null}},{"type":"Feature","geometry":{"type":"Point","coordinates":[120.969602,23.970391]},"properties":{"cartodb_id":198,"name":"埔里鎮立網球場","description":false,"tel":"049-2984040\n","surface":"紅土[clay]","city":"南投縣[Nantou County]","type":"公共設施[Public]","charge":"","number_of_courts":5,"address":"南投縣埔里鎮西安路一段193號\n","light":null}},{"type":"Feature","geometry":{"type":"Point","coordinates":[120.565904,22.608499]},"properties":{"cartodb_id":251,"name":"內埔國小網球場\n","description":false,"tel":"(08)7792055\n","surface":"紅土[clay]","city":"屏東縣[Pintung County]","type":"高中或國中小[School]","charge":"","number_of_courts":4,"address":"屏東縣內埔鄉內埔村廣濟路2號","light":null}},{"type":"Feature","geometry":{"type":"Point","coordinates":[120.571234,22.610634]},"properties":{"cartodb_id":270,"name":"內埔國中活動中心\n","description":false,"tel":"(08)7792013\n","surface":"紅土[clay]","city":"屏東縣[Pintung County]","type":"高中或國中小[School]","charge":"","number_of_courts":2,"address":"屏東縣內埔鄉文化路262號\n","light":null}},{"type":"Feature","geometry":{"type":"Point","coordinates":[120.50714,22.667826]},"properties":{"cartodb_id":152,"name":"屏東教育大學網球場(硬地)\n","description":false,"tel":"(08)7226141轉12203\n","surface":"硬地[hard]","city":"屏東市[Pinting City]","type":"大專院校[University]","charge":"","number_of_courts":3,"address":"屏東縣屏東市民生路4號之18\n","light":null}},{"type":"Feature","geometry":{"type":"Point","coordinates":[120.293942,22.69282]},"properties":{"cartodb_id":233,"name":"左營高中網球場(紅土)\n","description":false,"tel":"(07)5822010\n","surface":"紅土[clay]","city":"高雄市[Kaohsiung City]","type":"高中或國中小[School]","charge":"","number_of_courts":2,"address":"高雄市左營區海功路55號\n","light":null}},{"type":"Feature","geometry":{"type":"Point","coordinates":[120.817597,24.56495]},"properties":{"cartodb_id":179,"name":"苗栗縣立網球場\n","description":false,"tel":"037-260434轉25\n","surface":"硬地[hard]","city":"苗栗縣[Miaoli County]","type":"公共設施[Public]","charge":"","number_of_courts":9,"address":"苗栗縣苗栗市北苗里和平街54號\n","light":null}},{"type":"Feature","geometry":{"type":"Point","coordinates":[120.264059,22.623481]},"properties":{"cartodb_id":227,"name":"中山大學網球場\n","description":false,"tel":"(07)5252000-2801\n","surface":"硬地[hard]","city":"高雄市[Kaohsiung City]","type":"大專院校[University]","charge":"","number_of_courts":2,"address":"高雄市鼓山區蓮海路70號\n","light":null}},{"type":"Feature","geometry":{"type":"Point","coordinates":[121.380428,25.071974]},"properties":{"cartodb_id":311,"name":"林口高中網球場\n","description":false,"tel":"(02)26009482分機302\n","surface":"硬地[hard]","city":"新北市[New Taipei City]","type":"高中或國中小[School]","charge":"","number_of_courts":1,"address":"新北市林口區仁愛路二段173號\n","light":null}},{"type":"Feature","geometry":{"type":"Point","coordinates":[121.437894,25.173939]},"properties":{"cartodb_id":294,"name":"文化國小田徑場\n","description":false,"tel":"(02)26212031\n","surface":"硬地[hard]","city":"新北市[New Taipei City]","type":"高中或國中小[School]","charge":"","number_of_courts":1,"address":"新北市淡水區文化里真理街6號\n","light":null}},{"type":"Feature","geometry":{"type":"Point","coordinates":[121.023773,24.77911]},"properties":{"cartodb_id":214,"name":"新科國中網球場\n","description":false,"tel":"(03)6686387#6132\n","surface":"硬地[hard]","city":"新竹市[Hsinchu City]","type":"高中或國中小[School]","charge":"","number_of_courts":3,"address":"新竹市東區光復路一段89巷88號\n","light":null}},{"type":"Feature","geometry":{"type":"Point","coordinates":[120.469865,23.564771]},"properties":{"cartodb_id":275,"name":"國立中正大學網球場(硬地)","description":false,"tel":"(05)2720411\n","surface":"硬地[hard]","city":"嘉義縣[Chiayi County]","type":"大專院校[University]","charge":"","number_of_courts":1,"address":"嘉義縣民雄鄉三興村7鄰大學路一段168號\n","light":null}},{"type":"Feature","geometry":{"type":"Point","coordinates":[120.61788,23.810456]},"properties":{"cartodb_id":164,"name":"二水國小網球場","description":false,"tel":"(04)8792040-14\n","surface":"硬地[hard]","city":"彰化縣[Changhua County]","type":"高中或國中小[School]","charge":"","number_of_courts":3,"address":"彰化縣二水鄉文化村光文路119號\n","light":null}},{"type":"Feature","geometry":{"type":"Point","coordinates":[120.470927,23.953291]},"properties":{"cartodb_id":191,"name":"成功高中網球場","description":false,"tel":"(04)8828588#52\n","surface":"硬地[hard]","city":"彰化縣[Changhua County]","type":"高中或國中小[School]","charge":"","number_of_courts":2,"address":"彰化縣溪湖鎮福德路310號\n","light":null}},{"type":"Feature","geometry":{"type":"Point","coordinates":[120.527345,24.071931]},"properties":{"cartodb_id":279,"name":"精誠高中網球場","description":false,"tel":"(04)7622790\n","surface":"硬地[hard]","city":"彰化縣[Changhua County]","type":"高中或國中小[School]","charge":"","number_of_courts":2,"address":"彰化縣彰化市林森路200號\n","light":null}},{"type":"Feature","geometry":{"type":"Point","coordinates":[120.454968,24.025637]},"properties":{"cartodb_id":189,"name":"永豐國小網球場\n","description":false,"tel":"(04)7792748#13\n","surface":"硬地[hard]","city":"彰化縣[Changhua County]","type":"高中或國中小[School]","charge":"","number_of_courts":2,"address":"彰化縣福興鄉番社村80號\n","light":null}},{"type":"Feature","geometry":{"type":"Point","coordinates":[120.651468,24.12339]},"properties":{"cartodb_id":283,"name":"中山醫學大學網球場\n","description":false,"tel":"(04)24730022\n","surface":"硬地[hard]","city":"台中市[Taichung City]","type":"大專院校[University]","charge":"","number_of_courts":2,"address":"臺中市南區建國北路一段110號\n","light":null}},{"type":"Feature","geometry":{"type":"Point","coordinates":[120.551554,24.246568]},"properties":{"cartodb_id":129,"name":"梧棲網球場\n","description":false,"tel":"04-25120998\n","surface":"硬地[hard]","city":"台中市[Taichung City]","type":"公共設施[Public]","charge":"","number_of_courts":9,"address":"臺中市梧棲區博愛路215號\n","light":null}},{"type":"Feature","geometry":{"type":"Point","coordinates":[121.597947,25.071116]},"properties":{"cartodb_id":176,"name":"國防醫學院網球場","description":false,"tel":"(02)87923144\n","surface":"硬地[hard]","city":"台北市[Taipei City]","type":"大專院校[University]","charge":"","number_of_courts":3,"address":"臺北市內湖區民權東路六段161號\n","light":null}},{"type":"Feature","geometry":{"type":"Point","coordinates":[120.233806,23.115965]},"properties":{"cartodb_id":140,"name":"安定國中網球場\n","description":false,"tel":"(06)5922003\n","surface":"硬地[hard]","city":"台南市[Tainan City]","type":"高中或國中小[School]","charge":"","number_of_courts":4,"address":"臺南市安定區安加里262之1號\n","light":null}},{"type":"Feature","geometry":{"type":"Point","coordinates":[120.216345,23.050185]},"properties":{"cartodb_id":172,"name":"安順國中網球場\n","description":false,"tel":"06-3559652#134\n","surface":"硬地[hard]","city":"台南市[Tainan City]","type":"高中或國中小[School]","charge":"","number_of_courts":1,"address":"臺南市安南區安和路三段227號\n","light":null}},{"type":"Feature","geometry":{"type":"Point","coordinates":[120.215063,23.140185]},"properties":{"cartodb_id":157,"name":"後營國小網球場\n","description":false,"tel":"(06)7952131\n","surface":"硬地[hard]","city":"台南市[Tainan City]","type":"高中或國中小[School]","charge":"","number_of_courts":1,"address":"臺南市西港區營西里3號\n","light":null}},{"type":"Feature","geometry":{"type":"Point","coordinates":[120.223378,22.983133]},"properties":{"cartodb_id":141,"name":"忠孝國中網球場\n","description":false,"tel":"(06)2670495\n","surface":"硬地[hard]","city":"台南市[Tainan City]","type":"高中或國中小[School]","charge":"","number_of_courts":2,"address":"臺南市東區崇善路151號\n","light":null}}]}